{
 "cwbdata": {
  "@xsi:schemaLocation": "urn:cwb.gov.tw:cwbdata-0.1 https://opendata.cwb.gov.tw/XSD/CWB-data.xsd",
  "@xmlns": "urn:cwb.gov.tw:cwbdata-0.1",
  "@xmlns:xsi": "http://www.w3.org/2001/XMLSchema-instance",
  "identifier": "4621e1ed-7536-48a5-8cf2-821c20138fae",
  "datasetID": "S0001",
  "datasetName": "過去氣象觀測",
  "dataItemID": "S0001-01000",
  "dataItemName": "中央氣象局氣候觀測_站況資料",
  "sender": "weather@cwb.gov.tw",
  "sent": "2020-12-23T10:28:02+08:00",
  "status": "Actual",
  "scope": "Public",
  "msgType": "Issue",
  "publisherOID": "2.16.886.101.20003.20008.20004",
  "note": "本局氣象觀測資料申購業務包含中央氣象局所屬有人站、自動氣象站，若需申購其他非屬氣象局租用儀器用地之測站資料，請洽02-23491102。",
  "resources": {
   "resource": {
    "metadata": {
     "resourceID": "S0001-01000-003",
     "resourceName": "中央氣象局氣象測站站況資料_無人氣象站(自動氣象站/雨量站",
     "resourceDescription": "氣象局所屬氣象觀測站、高空氣象觀測站之基本站況資料。(本表所列各站資料存取時間為參考基準，確切詳細資訊依資料庫為主)",
     "language": "zh",
     "homepage": "https://e-service.cwb.gov.tw/wdps/obs/state.htm",
     "temporal": {
      "updateDate": "2020-12-23"
     },
     "spatial": {
      "description": "中央氣象局所屬氣象觀測站",
      "coordinateReferenceSystem": {
       "EPSGCode": "EPSG:4326",
       "name": "WGS84",
       "datum": "World Geodetic System 1984",
       "coordinateFormat": "decimal degrees"
      }
     },
     "fields": {
      "field": [
       {
        "tagName": "stationID",
        "description": "本表所列站號\"C\"開頭為中央氣象局自動氣象/雨量站，第二碼\"0\"代表氣象站，\"1\"代表雨量站。"
       },
       {
        "tagName": "stationName",
        "description": "中文站名"
       },
       {
        "tagName": "stationNameEN",
        "description": "英文站名"
       },
       {
        "tagName": "stationAltitude",
        "description": "海拔高度(公尺)",
        "units": "m"
       },
       {
        "tagName": "longitude",
        "description": "經度"
       },
       {
        "tagName": "latitude",
        "description": "緯度"
       },
       {
        "tagName": "countyName",
        "description": "測站所在縣市"
       },
       {
        "tagName": "stationAddress",
        "description": "測站所在地址或位置描述"
       },
       {
        "tagName": "startDate",
        "description": "資料起始日期"
       },
       {
        "tagName": "endDate",
        "description": "撤站日期"
       },
       {
        "tagName": "status",
        "description": "測站狀態(現存/已撤銷)"
       },
       {
        "tagName": "note",
        "description": "備註"
       },
       {
        "tagName": "originalStationID",
        "description": "原站號"
       },
       {
        "tagName": "newStationID",
        "description": "新站號"
       }
      ]
     }
    },
    "data": {
     "stationsStatus": {
      "station": [
       {
        "stationID": "C0A510",
        "stationName": "大豹",
        "stationNameEN": "Dabao",
        "stationAltitude": "590.0",
        "longitude": "121.421547",
        "latitude": "24.887108",
        "countyName": "新北市",
        "stationAddress": "三峽區(三峽李山神宮附近)",
        "startDate": "1987-06-01",
        "endDate": "2009-05-16",
        "status": "已撤銷",
        "note": null,
        "originalStationID": null,
        "newStationID": null
       },
       {
        "stationID": "C0A520",
        "stationName": "山佳",
        "stationNameEN": "Shanjia",
        "stationAltitude": "48.0",
        "longitude": "121.402008",
        "latitude": "24.974944",
        "countyName": "新北市",
        "stationAddress": "樹林區中山路3段5號(山佳國民小學校園內)",
        "startDate": "1987-06-01",
        "endDate": null,
        "status": "現存測站",
        "note": null,
        "originalStationID": null,
        "newStationID": null
       },
       {
        "stationID": "C0A530",
        "stationName": "坪林",
        "stationNameEN": "Pinglin",
        "stationAltitude": "300.0",
        "longitude": "121.709378",
        "latitude": "24.938203",
        "countyName": "新北市",
        "stationAddress": "坪林區",
        "startDate": "1987-06-01",
        "endDate": null,
        "status": "現存測站",
        "note": null,
        "originalStationID": null,
        "newStationID": null
       },
       {
        "stationID": "C0A540",
        "stationName": "四堵",
        "stationNameEN": "Sihdu",
        "stationAltitude": "401.0",
        "longitude": "121.745894",
        "latitude": "24.892761",
        "countyName": "新北市",
        "stationAddress": "坪林區碧湖(北宜路旁之碧湖橋道路上行約10分鐘)",
        "startDate": "1987-06-01",
        "endDate": null,
        "status": "現存測站",
        "note": null,
        "originalStationID": null,
        "newStationID": null
       },
       {
        "stationID": "C0A550",
        "stationName": "泰平",
        "stationNameEN": "Taiping",
        "stationAltitude": "422.0",
        "longitude": "121.823711",
        "latitude": "24.971197",
        "countyName": "新北市",
        "stationAddress": "雙溪區泰平里8鄰大平路43號(泰平國小分校附近)",
        "startDate": "1987-06-01",
        "endDate": null,
        "status": "現存測站",
        "note": null,
        "originalStationID": null,
        "newStationID": null
       },
       {
        "stationID": "C0A560",
        "stationName": "福山",
        "stationNameEN": "Fushan",
        "stationAltitude": "405.0",
        "longitude": "121.502811",
        "latitude": "24.776203",
        "countyName": "新北市",
        "stationAddress": "烏來區福山里李茂岸八號(福山國小旁)",
        "startDate": "1987-06-01",
        "endDate": null,
        "status": "現存測站",
        "note": null,
        "originalStationID": null,
        "newStationID": null
       },
       {
        "stationID": "C0A570",
        "stationName": "桶後",
        "stationNameEN": "Tonghou",
        "stationAltitude": "360.0",
        "longitude": "121.597992",
        "latitude": "24.848222",
        "countyName": "新北市",
        "stationAddress": "烏來區后桶街49號孝義里5-6k處路旁",
        "startDate": "1987-06-01",
        "endDate": null,
        "status": "現存測站",
        "note": null,
        "originalStationID": null,
        "newStationID": null
       },
       {
        "stationID": "C0A580",
        "stationName": "屈尺",
        "stationNameEN": "Cyuchih",
        "stationAltitude": "70.0",
        "longitude": "121.546333",
        "latitude": "24.922422",
        "countyName": "新北市",
        "stationAddress": "新店區屈尺里10鄰屈尺路55號(屈尺國民小學國小校園內)",
        "startDate": "1987-06-01",
        "endDate": "2018-10-30",
        "status": "已撤銷",
        "note": null,
        "originalStationID": null,
        "newStationID": "C0AI10"
       },
       {
        "stationID": "C0A590",
        "stationName": "大尖山",
        "stationNameEN": "Dajianshan",
        "stationAltitude": "326.0",
        "longitude": "121.666006",
        "latitude": "25.051544",
        "countyName": "新北市",
        "stationAddress": "汐止區勤進路",
        "startDate": "1987-06-01",
        "endDate": "2011-08-12",
        "status": "已撤銷",
        "note": null,
        "originalStationID": null,
        "newStationID": null
       },
       {
        "stationID": "C0A640",
        "stationName": "石碇",
        "stationNameEN": "Shihding",
        "stationAltitude": "241.0",
        "longitude": "121.662931",
        "latitude": "24.993858",
        "countyName": "新北市",
        "stationAddress": "石碇區湳窟34號附近",
        "startDate": "2009-12-01",
        "endDate": null,
        "status": "現存測站",
        "note": "原(C1A640)站因擴充為氣象站，於2009/12/1升級為(C0A640)站。",
        "originalStationID": "C1A640",
        "newStationID": null
       },
       {
        "stationID": "C0A650",
        "stationName": "火燒寮",
        "stationNameEN": "Huoshaoliao",
        "stationAltitude": "287.0",
        "longitude": "121.742892",
        "latitude": "25.002719",
        "countyName": "新北市",
        "stationAddress": "平溪區東勢里",
        "startDate": "2009-12-01",
        "endDate": null,
        "status": "現存測站",
        "note": "原(C1A650)站因擴充為氣象站，於2009/12/1升級為(C0A650)站。",
        "originalStationID": "C1A650",
        "newStationID": null
       },
       {
        "stationID": "C0A660",
        "stationName": "瑞芳",
        "stationNameEN": "Rueifang",
        "stationAltitude": "97.0",
        "longitude": "121.801147",
        "latitude": "25.113169",
        "countyName": "新北市",
        "stationAddress": "瑞芳區22403龍山里逢甲路360號(義方國民小學校園內)",
        "startDate": "2009-12-01",
        "endDate": null,
        "status": "現存測站",
        "note": "原(C1A660)站因擴充為氣象站，於2009/12/1升級為(C0A660)站。",
        "originalStationID": "C1A660",
        "newStationID": null
       },
       {
        "stationID": "C0A680",
        "stationName": "五股",
        "stationNameEN": "Wugu",
        "stationAltitude": "95.0",
        "longitude": "121.434975",
        "latitude": "25.083353",
        "countyName": "新北市",
        "stationAddress": "五股區248成泰路二段49巷15號(五股國中校園內)",
        "startDate": "2009-12-01",
        "endDate": "2016-07-02",
        "status": "已撤銷",
        "note": "原(C1A680)站因擴充為氣象站，於2009/12/1升級為(C0A680)站。",
        "originalStationID": "C1A680",
        "newStationID": null
       },
       {
        "stationID": "C0A710",
        "stationName": "林口",
        "stationNameEN": "Linkou",
        "stationAltitude": "238.0",
        "longitude": "121.378217",
        "latitude": "25.076364",
        "countyName": "新北市",
        "stationAddress": "林口區民治路25號(林口國中校園內)",
        "startDate": "2009-12-01",
        "endDate": "2017-01-03",
        "status": "已撤銷",
        "note": "原(C1A710)站因擴充為氣象站，於2009/12/1升級為(C0A710)站。",
        "originalStationID": "C1A710",
        "newStationID": null
       },
       {
        "stationID": "C0A860",
        "stationName": "大坪",
        "stationNameEN": "Daping",
        "stationAltitude": "362.0",
        "longitude": "121.632969",
        "latitude": "25.165914",
        "countyName": "新北市",
        "stationAddress": "萬里區溪底里香員林6-3號",
        "startDate": "1995-01-01",
        "endDate": null,
        "status": "現存測站",
        "note": null,
        "originalStationID": null,
        "newStationID": null
       },
       {
        "stationID": "C0A870",
        "stationName": "五指山",
        "stationNameEN": "Wujhihshan",
        "stationAltitude": "685.0",
        "longitude": "121.608692",
        "latitude": "25.132153",
        "countyName": "新北市",
        "stationAddress": "汐止區國軍示範公墓旁之復興廣播電台門口外",
        "startDate": "1995-01-01",
        "endDate": null,
        "status": "現存測站",
        "note": null,
        "originalStationID": null,
        "newStationID": null
       },
       {
        "stationID": "C0A880",
        "stationName": "福隆",
        "stationNameEN": "Fulong",
        "stationAltitude": "6.0",
        "longitude": "121.942083",
        "latitude": "25.017842",
        "countyName": "新北市",
        "stationAddress": "貢寮區東北角海岸國家風景管理處之福隆遊客中心後方",
        "startDate": "1995-01-01",
        "endDate": null,
        "status": "現存測站",
        "note": null,
        "originalStationID": null,
        "newStationID": null
       },
       {
        "stationID": "C0A890",
        "stationName": "雙溪",
        "stationNameEN": "Shuangsi",
        "stationAltitude": "40.0",
        "longitude": "121.864242",
        "latitude": "25.036003",
        "countyName": "新北市",
        "stationAddress": "雙溪區雙溪里社區活動中心旁花圃內",
        "startDate": "1995-01-01",
        "endDate": null,
        "status": "現存測站",
        "note": null,
        "originalStationID": null,
        "newStationID": null
       },
       {
        "stationID": "C0A920",
        "stationName": "富貴角",
        "stationNameEN": "Fugueijiao",
        "stationAltitude": "196.0",
        "longitude": "121.565258",
        "latitude": "25.263783",
        "countyName": "新北市",
        "stationAddress": "石門區山溪里10鄰九芎林13號旁(石門國小山溪分班附近)",
        "startDate": "1995-01-01",
        "endDate": null,
        "status": "現存測站",
        "note": null,
        "originalStationID": null,
        "newStationID": null
       },
       {
        "stationID": "C0A930",
        "stationName": "三和",
        "stationNameEN": "Sanhe",
        "stationAltitude": "200.0",
        "longitude": "121.594070",
        "latitude": "25.234890",
        "countyName": "新北市",
        "stationAddress": "金山區兩湖里(距兩湖分校約300公尺)",
        "startDate": "1995-01-01",
        "endDate": "2014-03-20",
        "status": "已撤銷",
        "note": "因移位，於2014/4/1更變為(C0A931)站。",
        "originalStationID": null,
        "newStationID": "C0A931"
       },
       {
        "stationID": "C0A931",
        "stationName": "三和",
        "stationNameEN": "Sanhe",
        "stationAltitude": "216.0",
        "longitude": "121.595236",
        "latitude": "25.233153",
        "countyName": "新北市",
        "stationAddress": "金山區三和國小兩湖分校",
        "startDate": "2014-04-01",
        "endDate": null,
        "status": "現存測站",
        "note": "原(C0A930)站因移位，於2014/4/1更變為(C0A931)站。",
        "originalStationID": "C0A930",
        "newStationID": null
       },
       {
        "stationID": "C0A940",
        "stationName": "金山",
        "stationNameEN": "Jinshan",
        "stationAltitude": "49.0",
        "longitude": "121.643967",
        "latitude": "25.223628",
        "countyName": "新北市",
        "stationAddress": "金山區中興段404地號(磺港社區活動中心內)",
        "startDate": "1995-01-01",
        "endDate": null,
        "status": "現存測站",
        "note": null,
        "originalStationID": null,
        "newStationID": null
       },
       {
        "stationID": "C0A950",
        "stationName": "鼻頭角",
        "stationNameEN": "Bitoujiao",
        "stationAltitude": "60.0",
        "longitude": "121.923372",
        "latitude": "25.129036",
        "countyName": "新北市",
        "stationAddress": "瑞芳區鼻頭角燈塔旁",
        "startDate": "1995-01-01",
        "endDate": null,
        "status": "現存測站",
        "note": null,
        "originalStationID": null,
        "newStationID": null
       },
       {
        "stationID": "C0A970",
        "stationName": "三貂角",
        "stationNameEN": "Sandiaojiao",
        "stationAltitude": "96.0",
        "longitude": "122.002058",
        "latitude": "25.007606",
        "countyName": "新北市",
        "stationAddress": "貢寮區三貂角燈塔旁",
        "startDate": "1996-01-01",
        "endDate": null,
        "status": "現存測站",
        "note": "本站於2017/10/23進行儀器汰換，於2017/12/1完成驗收。",
        "originalStationID": null,
        "newStationID": null
       },
       {
        "stationID": "C0A980",
        "stationName": "社子",
        "stationNameEN": "Shezih",
        "stationAltitude": "11.0",
        "longitude": "121.469681",
        "latitude": "25.109508",
        "countyName": "臺北市",
        "stationAddress": "士林區延平北路9段212號(台北海洋技術學院內)",
        "startDate": "1997-12-01",
        "endDate": null,
        "status": "現存測站",
        "note": null,
        "originalStationID": null,
        "newStationID": null
       },
       {
        "stationID": "C0A990",
        "stationName": "大崙尾山",
        "stationNameEN": "Dalunweishan",
        "stationAltitude": "463.0",
        "longitude": "121.573586",
        "latitude": "25.106275",
        "countyName": "臺北市",
        "stationAddress": "內湖區大崙尾山(內雙溪森林公園)",
        "startDate": "1997-12-01",
        "endDate": "2016-06-17",
        "status": "已撤銷",
        "note": null,
        "originalStationID": null,
        "newStationID": null
       },
       {
        "stationID": "C0A9A0",
        "stationName": "大直",
        "stationNameEN": "Dazhi",
        "stationAltitude": "24.0",
        "longitude": "121.542853",
        "latitude": "25.078047",
        "countyName": "臺北市",
        "stationAddress": "中山區北安路420號(大直高中內)",
        "startDate": "1997-12-01",
        "endDate": "2020-08-19",
        "status": "已撤銷",
        "note": null,
        "originalStationID": null,
        "newStationID": null
       },
       {
        "stationID": "C0A9B0",
        "stationName": "石牌",
        "stationNameEN": "Shipai",
        "stationAltitude": "7.0",
        "longitude": "121.513817",
        "latitude": "25.116342",
        "countyName": "臺北市",
        "stationAddress": "北投區石牌路1段139號(石牌國中內)",
        "startDate": "1997-12-01",
        "endDate": "2019-09-09",
        "status": "已撤銷",
        "note": "原(C0A9B0)站因移位，於2019/9/10變更為(C0AI40)站。",
        "originalStationID": null,
        "newStationID": "C0AI40"
       },
       {
        "stationID": "C0A9C0",
        "stationName": "天母",
        "stationNameEN": "Tianmu",
        "stationAltitude": "35.0",
        "longitude": "121.537169",
        "latitude": "25.117494",
        "countyName": "臺北市",
        "stationAddress": "士林區天母東路116號(三玉國小內)",
        "startDate": "1997-12-01",
        "endDate": null,
        "status": "現存測站",
        "note": null,
        "originalStationID": null,
        "newStationID": null
       },
       {
        "stationID": "C0A9D0",
        "stationName": "永和",
        "stationNameEN": "Yonghe",
        "stationAltitude": "13.0",
        "longitude": "121.504750",
        "latitude": "25.008944",
        "countyName": "新北市",
        "stationAddress": "永和區保生路25號(永平國民小學校園內)",
        "startDate": "1997-12-01",
        "endDate": "2013-12-03",
        "status": "已撤銷",
        "note": null,
        "originalStationID": null,
        "newStationID": null
       },
       {
        "stationID": "C0A9E0",
        "stationName": "士林",
        "stationNameEN": "Shihlin",
        "stationAltitude": "26.0",
        "longitude": "121.503019",
        "latitude": "25.090253",
        "countyName": "臺北市",
        "stationAddress": "士林區延平北路6段308號(社子國小內)",
        "startDate": "1997-12-01",
        "endDate": null,
        "status": "現存測站",
        "note": null,
        "originalStationID": null,
        "newStationID": null
       },
       {
        "stationID": "C0A9F0",
        "stationName": "內湖",
        "stationNameEN": "Neihu",
        "stationAltitude": "35.0",
        "longitude": "121.575450",
        "latitude": "25.079422",
        "countyName": "臺北市",
        "stationAddress": "內湖區內湖路一段520號(內湖高工內)",
        "startDate": "1997-12-01",
        "endDate": null,
        "status": "現存測站",
        "note": null,
        "originalStationID": null,
        "newStationID": null
       },
       {
        "stationID": "C0A9G0",
        "stationName": "南港",
        "stationNameEN": "Nangang",
        "stationAltitude": "42.0",
        "longitude": "121.602906",
        "latitude": "25.055431",
        "countyName": "臺北市",
        "stationAddress": "南港區興南路62號(東新國小內)",
        "startDate": "1997-12-01",
        "endDate": "2018-06-07",
        "status": "已撤銷",
        "note": null,
        "originalStationID": null,
        "newStationID": null
       },
       {
        "stationID": "C0A9H0",
        "stationName": "信義",
        "stationNameEN": "Xinyi",
        "stationAltitude": "51.0",
        "longitude": "121.564639",
        "latitude": "25.038094",
        "countyName": "臺北市",
        "stationAddress": "信義區莊敬路423巷8弄1號(信義國中內)",
        "startDate": "1997-12-01",
        "endDate": "2009-03-31",
        "status": "已撤銷",
        "note": null,
        "originalStationID": null,
        "newStationID": null
       },
       {
        "stationID": "C0A9I0",
        "stationName": "三重",
        "stationNameEN": "Sanchong",
        "stationAltitude": "18.0",
        "longitude": "121.488489",
        "latitude": "25.064028",
        "countyName": "新北市",
        "stationAddress": "三重區中正北路107號(明志國中校園內)",
        "startDate": "1997-12-01",
        "endDate": "2010-09-29",
        "status": "已撤銷",
        "note": "因移位，於2010/10/11更變為(C0A9I1)站。",
        "originalStationID": null,
        "newStationID": "C0A9I1"
       },
       {
        "stationID": "C0A9I1",
        "stationName": "三重",
        "stationNameEN": "Sanchong",
        "stationAltitude": "18.0",
        "longitude": "121.488492",
        "latitude": "25.056667",
        "countyName": "新北市",
        "stationAddress": "三重區集美街10號(集美國小校園內)",
        "startDate": "2010-10-11",
        "endDate": "2018-06-27",
        "status": "已撤銷",
        "note": "原(C0A9I0)站因移位，於2010/10/11更變為(C0A9I1)站。原(C0A9I1)站因移位，於2019/8/2更變為(C0AI30)站。",
        "originalStationID": "C0A9I0",
        "newStationID": "C0AI30"
       },
       {
        "stationID": "C0AC40",
        "stationName": "大屯山",
        "stationNameEN": "Datunshan",
        "stationAltitude": "1079.0",
        "longitude": "121.522408",
        "latitude": "25.175675",
        "countyName": "臺北市",
        "stationAddress": "北投區湖田段461-6地號(民航局大屯山助航臺)",
        "startDate": "2006-01-01",
        "endDate": null,
        "status": "現存測站",
        "note": null,
        "originalStationID": null,
        "newStationID": null
       },
       {
        "stationID": "C0AC60",
        "stationName": "三峽",
        "stationNameEN": "Sanshia",
        "stationAltitude": "55.0",
        "longitude": "121.369728",
        "latitude": "24.939025",
        "countyName": "新北市",
        "stationAddress": "三峽區復興路238號(三峽國中校園內)",
        "startDate": "2009-10-01",
        "endDate": null,
        "status": "現存測站",
        "note": null,
        "originalStationID": null,
        "newStationID": null
       },
       {
        "stationID": "C0AC70",
        "stationName": "信義",
        "stationNameEN": "Xinyi",
        "stationAltitude": "71.0",
        "longitude": "121.564597",
        "latitude": "25.037822",
        "countyName": "臺北市",
        "stationAddress": "信義區市府路1號(台北市政府頂樓)",
        "startDate": "2009-10-01",
        "endDate": null,
        "status": "現存測站",
        "note": null,
        "originalStationID": null,
        "newStationID": null
       },
       {
        "stationID": "C0AC80",
        "stationName": "文山",
        "stationNameEN": "Wenshan",
        "stationAltitude": "40.0",
        "longitude": "121.575728",
        "latitude": "25.002350",
        "countyName": "臺北市",
        "stationAddress": "文山區木柵路4段159巷14-1號(博嘉國小校園內)",
        "startDate": "2009-12-01",
        "endDate": null,
        "status": "現存測站",
        "note": "原(C1AC80)站因擴充為氣象站，於2009/12/1升級為(C0AC80)站。",
        "originalStationID": "C1AC80",
        "newStationID": null
       },
       {
        "stationID": "C0AC90",
        "stationName": "中和",
        "stationNameEN": "Zhonghe",
        "stationAltitude": "32.0",
        "longitude": "121.516000",
        "latitude": "24.990160",
        "countyName": "新北市",
        "stationAddress": "中和區景新街467巷37號(景新國小校園內)",
        "startDate": "2009-12-01",
        "endDate": "2011-07-22",
        "status": "已撤銷",
        "note": "原(C1AC90)站因擴充為氣象站，於2009/12/1升級為(C0AC90)站。",
        "originalStationID": "C1AC90",
        "newStationID": null
       },
       {
        "stationID": "C0ACA0",
        "stationName": "新莊",
        "stationNameEN": "Xinzhuang",
        "stationAltitude": "25.0",
        "longitude": "121.446756",
        "latitude": "25.051478",
        "countyName": "新北市",
        "stationAddress": "新莊區中和街193號(榮富國小校園內)",
        "startDate": "2009-12-01",
        "endDate": null,
        "status": "現存測站",
        "note": "原(C1ACA0)站因擴充為氣象站，於2009/12/1升級為(C0ACA0)站，站址搬遷至同校行政大樓西側。",
        "originalStationID": "C1ACA0",
        "newStationID": null
       },
       {
        "stationID": "C0AD00",
        "stationName": "三芝",
        "stationNameEN": "Sanzhi",
        "stationAltitude": "86.0",
        "longitude": "121.501917",
        "latitude": "25.258131",
        "countyName": "新北市",
        "stationAddress": "三芝區育英路22號(三芝國小內)",
        "startDate": "2009-11-01",
        "endDate": null,
        "status": "現存測站",
        "note": null,
        "originalStationID": null,
        "newStationID": null
       },
       {
        "stationID": "C0AD10",
        "stationName": "八里",
        "stationNameEN": "Bali",
        "stationAltitude": "27.0",
        "longitude": "121.403947",
        "latitude": "25.150211",
        "countyName": "新北市",
        "stationAddress": "八里區中山路二段338號(八里國小內)",
        "startDate": "2009-11-01",
        "endDate": null,
        "status": "現存測站",
        "note": null,
        "originalStationID": null,
        "newStationID": null
       },
       {
        "stationID": "C0AD20",
        "stationName": "深坑",
        "stationNameEN": "Shenkeng",
        "stationAltitude": "57.0",
        "longitude": "121.617556",
        "latitude": "25.001381",
        "countyName": "新北市",
        "stationAddress": "深坑區文化街45號(深坑國小內)",
        "startDate": "2009-11-01",
        "endDate": "2017-07-15",
        "status": "已撤銷",
        "note": null,
        "originalStationID": null,
        "newStationID": null
       },
       {
        "stationID": "C0AD30",
        "stationName": "蘆洲",
        "stationNameEN": "Lujhou",
        "stationAltitude": "20.0",
        "longitude": "121.472331",
        "latitude": "25.086594",
        "countyName": "新北市",
        "stationAddress": "蘆洲區三民路96號(三民高中內)",
        "startDate": "2009-11-01",
        "endDate": null,
        "status": "現存測站",
        "note": null,
        "originalStationID": null,
        "newStationID": null
       },
       {
        "stationID": "C0AD40",
        "stationName": "土城",
        "stationNameEN": "Tucheng",
        "stationAltitude": "32.0",
        "longitude": "121.445169",
        "latitude": "24.973208",
        "countyName": "新北市",
        "stationAddress": "土城區金城路一段90號(新北市政府消防局土城分隊大樓樓頂)",
        "startDate": "2009-11-01",
        "endDate": null,
        "status": "現存測站",
        "note": null,
        "originalStationID": null,
        "newStationID": null
       },
       {
        "stationID": "C0AD50",
        "stationName": "鶯歌",
        "stationNameEN": "Yingge",
        "stationAltitude": "84.0",
        "longitude": "121.346294",
        "latitude": "24.951533",
        "countyName": "新北市",
        "stationAddress": "鶯歌區尖山埔路106號(鶯歌國小內)",
        "startDate": "2009-11-01",
        "endDate": null,
        "status": "現存測站",
        "note": null,
        "originalStationID": null,
        "newStationID": null
       },
       {
        "stationID": "C0AG90",
        "stationName": "中和",
        "stationNameEN": "Zhonghe",
        "stationAltitude": "25.0",
        "longitude": "121.490444",
        "latitude": "24.992647",
        "countyName": "新北市",
        "stationAddress": "中和區錦和路350號(錦和運動公園)",
        "startDate": "2011-08-23",
        "endDate": null,
        "status": "現存測站",
        "note": null,
        "originalStationID": null,
        "newStationID": null
       },
       {
        "stationID": "C0AH00",
        "stationName": "汐止",
        "stationNameEN": "Xizhi",
        "stationAltitude": "38.0",
        "longitude": "121.658778",
        "latitude": "25.066881",
        "countyName": "新北市",
        "stationAddress": "汐止區大同路二段394號(汐止國中)",
        "startDate": "2011-09-01",
        "endDate": null,
        "status": "現存測站",
        "note": null,
        "originalStationID": null,
        "newStationID": null
       },
       {
        "stationID": "C0AH10",
        "stationName": "永和",
        "stationNameEN": "Yonghe",
        "stationAltitude": "30.0",
        "longitude": "121.508111",
        "latitude": "25.011250",
        "countyName": "新北市",
        "stationAddress": "永和區永平路205號(永平高中校園內)",
        "startDate": "2014-01-01",
        "endDate": null,
        "status": "現存測站",
        "note": null,
        "originalStationID": null,
        "newStationID": null
       },
       {
        "stationID": "C0AH30",
        "stationName": "五分山",
        "stationNameEN": "Wufengshan",
        "stationAltitude": "755.0",
        "longitude": "121.780794",
        "latitude": "25.071250",
        "countyName": "新北市",
        "stationAddress": "瑞芳區靜安路四段1巷1號",
        "startDate": "2016-01-01",
        "endDate": null,
        "status": "現存測站",
        "note": null,
        "originalStationID": null,
        "newStationID": null
       },
       {
        "stationID": "C0AH40",
        "stationName": "平等",
        "stationNameEN": "Pingdeng",
        "stationAltitude": "426.0",
        "longitude": "121.577086",
        "latitude": "25.129142",
        "countyName": "臺北市",
        "stationAddress": "士林區平菁街101號(平等國小)",
        "startDate": "2016-08-01",
        "endDate": null,
        "status": "現存測站",
        "note": null,
        "originalStationID": null,
        "newStationID": null
       },
       {
        "stationID": "C0AH50",
        "stationName": "林口",
        "stationNameEN": "Linkou",
        "stationAltitude": "275.0",
        "longitude": "121.380840",
        "latitude": "25.072181",
        "countyName": "新北市",
        "stationAddress": "林口區仁愛路二段173號(林口高中內)",
        "startDate": "2017-01-10",
        "endDate": null,
        "status": "現存測站",
        "note": null,
        "originalStationID": null,
        "newStationID": null
       },
       {
        "stationID": "C0AH70",
        "stationName": "松山",
        "stationNameEN": "Songshan",
        "stationAltitude": "34.0",
        "longitude": "121.550420",
        "latitude": "25.048710",
        "countyName": "臺北市",
        "stationAddress": "松山區敦化北路1號(臺北市松山運動中心)",
        "startDate": "2017-04-26",
        "endDate": null,
        "status": "現存測站",
        "note": "因雨量筒較晚驗收完成，2017/04/26至2017/08/17不提供雨量資料。",
        "originalStationID": null,
        "newStationID": null
       },
       {
        "stationID": "C0AH80",
        "stationName": "深坑",
        "stationNameEN": "Shenkeng",
        "stationAltitude": "68.0",
        "longitude": "121.628328",
        "latitude": "25.002703",
        "countyName": "新北市",
        "stationAddress": "深坑區文山路1段35號(深坑消防分隊樓頂)",
        "startDate": "2017-08-02",
        "endDate": null,
        "status": "現存測站",
        "note": null,
        "originalStationID": null,
        "newStationID": null
       },
       {
        "stationID": "C0AH90",
        "stationName": "福山植物園",
        "stationNameEN": "Fushan Botanical Garden",
        "stationAltitude": "660.0",
        "longitude": "121.581350",
        "latitude": "24.760717",
        "countyName": "新北市",
        "stationAddress": "烏來區福山植物園內(生活植物區之民俗植物區觀測坪)",
        "startDate": "2018-03-23",
        "endDate": null,
        "status": "現存測站",
        "note": null,
        "originalStationID": null,
        "newStationID": null
       },
       {
        "stationID": "C0AI00",
        "stationName": "五股",
        "stationNameEN": "Wugu",
        "stationAltitude": "188.0",
        "longitude": "121.427280",
        "latitude": "25.074450",
        "countyName": "新北市",
        "stationAddress": "五股區外寮路12號",
        "startDate": "2018-07-10",
        "endDate": null,
        "status": "現存測站",
        "note": null,
        "originalStationID": null,
        "newStationID": null
       },
       {
        "stationID": "C0AI10",
        "stationName": "屈尺",
        "stationNameEN": "Quchi",
        "stationAltitude": "76.0",
        "longitude": "121.544750",
        "latitude": "24.921840",
        "countyName": "新北市",
        "stationAddress": "新店區屈尺路83號(衛福部北區老人之家)",
        "startDate": "2018-11-20",
        "endDate": null,
        "status": "現存測站",
        "note": null,
        "originalStationID": "C0A580",
        "newStationID": null
       },
       {
        "stationID": "C0AI20",
        "stationName": "白沙灣",
        "stationNameEN": "Baishawan",
        "stationAltitude": "25.0",
        "longitude": "121.519058",
        "latitude": "25.283128",
        "countyName": "新北市",
        "stationAddress": "石門區德茂里下員坑33-6號（白沙灣遊客中心樓頂）",
        "startDate": "2018-11-28",
        "endDate": null,
        "status": "現存測站",
        "note": null,
        "originalStationID": null,
        "newStationID": null
       },
       {
        "stationID": "C0AI30",
        "stationName": "三重",
        "stationNameEN": "Sanchong",
        "stationAltitude": "26.0",
        "longitude": "121.500629",
        "latitude": "25.057328",
        "countyName": "新北市",
        "stationAddress": "三重區環河南路100號",
        "startDate": "2019-08-02",
        "endDate": null,
        "status": "現存測站",
        "note": "原(C0A9I1)站因移位，於2019/8/2變更為(C0AI30)站。",
        "originalStationID": "C0A9I1",
        "newStationID": null
       },
       {
        "stationID": "C0AI40",
        "stationName": "石牌",
        "stationNameEN": "Shipai",
        "stationAltitude": "35.0",
        "longitude": "121.513167",
        "latitude": "25.115601",
        "countyName": "臺北市",
        "stationAddress": "北投區石牌路一段139號(石牌國中自強樓頂樓)",
        "startDate": "2019-09-10",
        "endDate": null,
        "status": "現存測站",
        "note": "原(C0A9B0)站因移位，於2019/9/10變更為(C0AI40)站。",
        "originalStationID": "C0A9B0",
        "newStationID": null
       },
       {
        "stationID": "C0B010",
        "stationName": "七堵",
        "stationNameEN": "Qidu",
        "stationAltitude": "38.0",
        "longitude": "121.717130",
        "latitude": "25.094819",
        "countyName": "基隆市",
        "stationAddress": "七堵區東新街22號(基隆商工樓頂)",
        "startDate": "2018-06-23",
        "endDate": null,
        "status": "現存測站",
        "note": null,
        "originalStationID": null,
        "newStationID": null
       },
       {
        "stationID": "C0B020",
        "stationName": "基隆嶼",
        "stationNameEN": "Keelung Islet",
        "stationAltitude": "86.0",
        "longitude": "121.783910",
        "latitude": "25.191410",
        "countyName": "基隆市",
        "stationAddress": "中正區基隆嶼",
        "startDate": "2018-10-26",
        "endDate": null,
        "status": "現存測站",
        "note": null,
        "originalStationID": null,
        "newStationID": null
       },
       {
        "stationID": "C0C450",
        "stationName": "新屋",
        "stationNameEN": "Sinwu",
        "stationAltitude": "92.0",
        "longitude": "121.106831",
        "latitude": "24.971294",
        "countyName": "桃園市",
        "stationAddress": "新屋區新屋里(衛生署桃園醫院新屋分院北面停車場邊)",
        "startDate": "1987-06-01",
        "endDate": "2011-09-21",
        "status": "已撤銷",
        "note": null,
        "originalStationID": null,
        "newStationID": null
       },
       {
        "stationID": "C0C460",
        "stationName": "復興",
        "stationNameEN": "Fuxing",
        "stationAltitude": "482.0",
        "longitude": "121.352281",
        "latitude": "24.820208",
        "countyName": "桃園市",
        "stationAddress": "復興區澤仁里中正路248號(介壽國民中學校園內)",
        "startDate": "2007-10-01",
        "endDate": null,
        "status": "現存測站",
        "note": "原(C1C460)站因擴充為氣象站，於2007/10/1升級為(C0C460)站。",
        "originalStationID": "C1C460",
        "newStationID": null
       },
       {
        "stationID": "C0C480",
        "stationName": "桃園",
        "stationNameEN": "Taoyuan",
        "stationAltitude": "105.0",
        "longitude": "121.323172",
        "latitude": "24.992425",
        "countyName": "桃園市",
        "stationAddress": "桃園區成功路二段144號(桃園高級農工職業學校校園內)",
        "startDate": "2008-01-01",
        "endDate": null,
        "status": "現存測站",
        "note": "原(C1C480)站因擴充為氣象站，於2008/1/1升級為(C0C480)站。",
        "originalStationID": "C1C480",
        "newStationID": null
       },
       {
        "stationID": "C0C490",
        "stationName": "八德",
        "stationNameEN": "Bade",
        "stationAltitude": "157.0",
        "longitude": "121.283289",
        "latitude": "24.928708",
        "countyName": "桃園市",
        "stationAddress": "八德區興仁里中山路94號(八德國民小學校園內)",
        "startDate": "2011-12-01",
        "endDate": null,
        "status": "現存測站",
        "note": "原(C1C490)站因擴充為氣象站，於2011/12/1升級為(C0C490)站。",
        "originalStationID": "C1C490",
        "newStationID": null
       },
       {
        "stationID": "C0C500",
        "stationName": "楊梅",
        "stationNameEN": "Yangmei",
        "stationAltitude": "181.0",
        "longitude": "121.148270",
        "latitude": "24.920929",
        "countyName": "桃園市",
        "stationAddress": "楊梅區高山里11鄰梅高路838號(楊梅高中校門口對面空地)",
        "startDate": "2011-12-01",
        "endDate": "2013-06-29",
        "status": "已撤銷",
        "note": "原(C1C500)站因擴充為氣象站，於2011/12/1升級為(C0C500)站。",
        "originalStationID": "C1C500",
        "newStationID": null
       },
       {
        "stationID": "C0C520",
        "stationName": "中壢",
        "stationNameEN": "Zhongli",
        "stationAltitude": "151.0",
        "longitude": "121.185253",
        "latitude": "24.967564",
        "countyName": "桃園市",
        "stationAddress": "中壢區五權里(中央大學校園內)",
        "startDate": "2007-10-01",
        "endDate": "2017-12-20",
        "status": "已撤銷",
        "note": "原(C1C520)站因擴充為氣象站，於2007/10/1升級為(C0C520)站。",
        "originalStationID": "C1C520",
        "newStationID": null
       },
       {
        "stationID": "C0C540",
        "stationName": "大園",
        "stationNameEN": "Dayuan",
        "stationAltitude": "46.0",
        "longitude": "121.225958",
        "latitude": "25.047750",
        "countyName": "桃園市",
        "stationAddress": "大園區埔心里25鄰中正東路1段189巷35號(埔心國民小學)",
        "startDate": "2008-01-01",
        "endDate": null,
        "status": "現存測站",
        "note": "原(C1C540)站因擴充為氣象站，於2008/1/1升級為(C0C540)站，2017/10/27站名由埔心變更為大園。",
        "originalStationID": "C1C540",
        "newStationID": null
       },
       {
        "stationID": "C0C570",
        "stationName": "新屋",
        "stationNameEN": "Sinwu",
        "stationAltitude": "5.0",
        "longitude": "121.047550",
        "latitude": "25.007560",
        "countyName": "桃園市",
        "stationAddress": "新屋區東興路二段946號",
        "startDate": "2008-01-01",
        "endDate": "2014-09-27",
        "status": "已撤銷",
        "note": "原(C1C570)站因擴充為氣象站，於2008/1/1升級為(C0C570)站。",
        "originalStationID": "C1C570",
        "newStationID": null
       },
       {
        "stationID": "C0C580",
        "stationName": "新豐",
        "stationNameEN": "Sinfong",
        "stationAltitude": "143.0",
        "longitude": "120.985423",
        "latitude": "24.868786",
        "countyName": "新竹縣",
        "stationAddress": "新豐鄉",
        "startDate": "2007-10-01",
        "endDate": "2008-02-24",
        "status": "已撤銷",
        "note": "原(C0C580)站因縣市代碼不符，於2008/2/25重新編碼為(C0D590)站。",
        "originalStationID": null,
        "newStationID": "C0D590"
       },
       {
        "stationID": "C0C590",
        "stationName": "觀音",
        "stationNameEN": "Guanyin",
        "stationAltitude": "72.0",
        "longitude": "121.153317",
        "latitude": "25.027072",
        "countyName": "桃園市",
        "stationAddress": "觀音區廣福里10-42號(逸福農場)",
        "startDate": "2007-10-01",
        "endDate": null,
        "status": "現存測站",
        "note": null,
        "originalStationID": null,
        "newStationID": null
       },
       {
        "stationID": "C0C610",
        "stationName": "龍潭",
        "stationNameEN": "Longtan",
        "stationAltitude": "234.0",
        "longitude": "121.216486",
        "latitude": "24.856764",
        "countyName": "桃園市",
        "stationAddress": "龍潭區神龍路346號(雙龍國民小學校園內)",
        "startDate": "2007-10-01",
        "endDate": "2014-03-16",
        "status": "已撤銷",
        "note": null,
        "originalStationID": null,
        "newStationID": null
       },
       {
        "stationID": "C0C620",
        "stationName": "蘆竹",
        "stationNameEN": "Luzhu",
        "stationAltitude": "19.0",
        "longitude": "121.265767",
        "latitude": "25.084275",
        "countyName": "桃園市",
        "stationAddress": "蘆竹區坑口里14鄰旁",
        "startDate": "2011-12-01",
        "endDate": null,
        "status": "現存測站",
        "note": "原(C1C620)站因擴充為氣象站，於2011/12/1升級為(C0C620)站。",
        "originalStationID": "C1C620",
        "newStationID": null
       },
       {
        "stationID": "C0C630",
        "stationName": "大溪",
        "stationNameEN": "Dasi",
        "stationAltitude": "209.0",
        "longitude": "121.265547",
        "latitude": "24.882853",
        "countyName": "桃園市",
        "stationAddress": "大溪區員林路2段450號(員樹林國小校園內)",
        "startDate": "2007-12-01",
        "endDate": null,
        "status": "現存測站",
        "note": null,
        "originalStationID": null,
        "newStationID": null
       },
       {
        "stationID": "C0C640",
        "stationName": "龜山",
        "stationNameEN": "Gueishan",
        "stationAltitude": "177.0",
        "longitude": "121.375719",
        "latitude": "25.030306",
        "countyName": "桃園市",
        "stationAddress": "龜山區舊路里振興路1169號(大埔國小校園內)",
        "startDate": "2007-12-01",
        "endDate": "2017-03-22",
        "status": "已撤銷",
        "note": null,
        "originalStationID": null,
        "newStationID": null
       },
       {
        "stationID": "C0C650",
        "stationName": "平鎮",
        "stationNameEN": "Pingjhen",
        "stationAltitude": "208.0",
        "longitude": "121.214636",
        "latitude": "24.897503",
        "countyName": "桃園市",
        "stationAddress": "平鎮區中豐路山頂段375巷45號(山豐國民小學校園內)",
        "startDate": "2007-12-01",
        "endDate": null,
        "status": "現存測站",
        "note": null,
        "originalStationID": null,
        "newStationID": null
       },
       {
        "stationID": "C0C660",
        "stationName": "楊梅",
        "stationNameEN": "Yangmei",
        "stationAltitude": "176.0",
        "longitude": "121.143047",
        "latitude": "24.912375",
        "countyName": "桃園市",
        "stationAddress": "楊梅區金華街100號(楊心國小)",
        "startDate": "2013-08-01",
        "endDate": null,
        "status": "現存測站",
        "note": null,
        "originalStationID": null,
        "newStationID": null
       },
       {
        "stationID": "C0C670",
        "stationName": "龍潭",
        "stationNameEN": "Longtan",
        "stationAltitude": "250.0",
        "longitude": "121.221389",
        "latitude": "24.870056",
        "countyName": "桃園市",
        "stationAddress": "龍潭區中興路726號（龍潭消防分隊）",
        "startDate": "2014-04-01",
        "endDate": null,
        "status": "現存測站",
        "note": null,
        "originalStationID": null,
        "newStationID": null
       },
       {
        "stationID": "C0C680",
        "stationName": "龜山",
        "stationNameEN": "Guishan",
        "stationAltitude": "228.0",
        "longitude": "121.386560",
        "latitude": "25.028460",
        "countyName": "桃園市",
        "stationAddress": "龜山區文化一路250號(國立體育大學田徑場)",
        "startDate": "2017-04-12",
        "endDate": null,
        "status": "現存測站",
        "note": null,
        "originalStationID": null,
        "newStationID": null
       },
       {
        "stationID": "C0C700",
        "stationName": "中壢",
        "stationNameEN": "Zhongli",
        "stationAltitude": "151.0",
        "longitude": "121.256375",
        "latitude": "24.977661",
        "countyName": "桃園市",
        "stationAddress": "中壢區成章四街120號(內壢高中樓頂)",
        "startDate": "2017-12-27",
        "endDate": null,
        "status": "現存測站",
        "note": null,
        "originalStationID": null,
        "newStationID": null
       },
       {
        "stationID": "C0C710",
        "stationName": "大溪永福",
        "stationNameEN": "Yongfu Daxi",
        "stationAltitude": "143.0",
        "longitude": "121.324975",
        "latitude": "24.892936",
        "countyName": "桃園市",
        "stationAddress": "大溪區信義路1165號（永福國小）",
        "startDate": "2018-12-26",
        "endDate": null,
        "status": "現存測站",
        "note": null,
        "originalStationID": null,
        "newStationID": null
       },
       {
        "stationID": "C0D360",
        "stationName": "梅花",
        "stationNameEN": "Meihua",
        "stationAltitude": "523.0",
        "longitude": "121.208558",
        "latitude": "24.678347",
        "countyName": "新竹縣",
        "stationAddress": "尖石鄉梅花村1鄰11號(梅花國小校園內)",
        "startDate": "1987-06-01",
        "endDate": null,
        "status": "現存測站",
        "note": null,
        "originalStationID": null,
        "newStationID": null
       },
       {
        "stationID": "C0D370",
        "stationName": "湖口",
        "stationNameEN": "Hukou",
        "stationAltitude": "79.0",
        "longitude": "121.043953",
        "latitude": "24.909136",
        "countyName": "新竹縣",
        "stationAddress": "湖口鄉德盛村98-8號(湖口農田水利會內)",
        "startDate": "2011-12-01",
        "endDate": "2013-09-09",
        "status": "已撤銷",
        "note": "原(C1D370)站因擴充為氣象站，於2011/12/1升級為(C0D370)站。",
        "originalStationID": "C1D370",
        "newStationID": null
       },
       {
        "stationID": "C0D390",
        "stationName": "關西",
        "stationNameEN": "Guanxi",
        "stationAltitude": "146.0",
        "longitude": "121.173947",
        "latitude": "24.798228",
        "countyName": "新竹縣",
        "stationAddress": "關西鎮北斗里北門口41號(關西國中校園內)",
        "startDate": "2008-01-01",
        "endDate": null,
        "status": "現存測站",
        "note": "原(C1D390)站因擴充為氣象站，於2008/1/1升級為(C0D390)站。",
        "originalStationID": "C1D390",
        "newStationID": null
       },
       {
        "stationID": "C0D430",
        "stationName": "峨眉",
        "stationNameEN": "Emei",
        "stationAltitude": "87.0",
        "longitude": "121.017189",
        "latitude": "24.690500",
        "countyName": "新竹縣",
        "stationAddress": "峨眉鄉31541峨眉村峨眉街54號(峨眉國中校園內)",
        "startDate": "2011-12-01",
        "endDate": null,
        "status": "現存測站",
        "note": "原(C1D430)站因擴充為氣象站，於2011/12/1升級為(C0D430)站。",
        "originalStationID": "C1D430",
        "newStationID": null
       },
       {
        "stationID": "C0D470",
        "stationName": "竹東",
        "stationNameEN": "Jhudong",
        "stationAltitude": "229.0",
        "longitude": "121.057881",
        "latitude": "24.767147",
        "countyName": "新竹縣",
        "stationAddress": "橫山鄉新庄子3號(華山國民中學內)",
        "startDate": "1990-07-21",
        "endDate": "2007-05-01",
        "status": "已撤銷",
        "note": null,
        "originalStationID": null,
        "newStationID": null
       },
       {
        "stationID": "C0D480",
        "stationName": "打鐵坑",
        "stationNameEN": "Datiekeng",
        "stationAltitude": "223.0",
        "longitude": "121.150789",
        "latitude": "24.849664",
        "countyName": "新竹縣",
        "stationAddress": "新埔鎮新北里8鄰大北坑28號旁",
        "startDate": "2008-01-01",
        "endDate": null,
        "status": "現存測站",
        "note": "原(C1D480)站因擴充為氣象站，於2008/1/1升級為(C0D480)站。",
        "originalStationID": "C1D480",
        "newStationID": null
       },
       {
        "stationID": "C0D540",
        "stationName": "橫山",
        "stationNameEN": "Hengshan",
        "stationAltitude": "227.0",
        "longitude": "121.116930",
        "latitude": "24.711160",
        "countyName": "新竹縣",
        "stationAddress": "橫山鄉橫山村橫山段426-6地號上",
        "startDate": "2007-10-01",
        "endDate": null,
        "status": "現存測站",
        "note": null,
        "originalStationID": null,
        "newStationID": null
       },
       {
        "stationID": "C0D550",
        "stationName": "雪霸",
        "stationNameEN": "Xueba",
        "stationAltitude": "1956.0",
        "longitude": "121.116050",
        "latitude": "24.526972",
        "countyName": "新竹縣",
        "stationAddress": "五峰鄉桃山村民石380號(雪霸農場內)",
        "startDate": "2007-10-01",
        "endDate": null,
        "status": "現存測站",
        "note": null,
        "originalStationID": null,
        "newStationID": null
       },
       {
        "stationID": "C0D560",
        "stationName": "竹東",
        "stationNameEN": "Zhudong",
        "stationAltitude": "147.0",
        "longitude": "121.057881",
        "latitude": "24.767147",
        "countyName": "新竹縣",
        "stationAddress": "竹東鎮二重國民小學校園內",
        "startDate": "2008-01-01",
        "endDate": null,
        "status": "現存測站",
        "note": "原(C1D560)站因擴充為氣象站，於2008/1/1升級為(C0D560)站。",
        "originalStationID": "C1D560",
        "newStationID": null
       },
       {
        "stationID": "C0D570",
        "stationName": "香山",
        "stationNameEN": "Siangshan",
        "stationAltitude": "15.0",
        "longitude": "120.905456",
        "latitude": "24.746892",
        "countyName": "新竹市",
        "stationAddress": "香山區長興街路旁",
        "startDate": "2007-12-01",
        "endDate": null,
        "status": "現存測站",
        "note": null,
        "originalStationID": null,
        "newStationID": null
       },
       {
        "stationID": "C0D580",
        "stationName": "寶山",
        "stationNameEN": "Baoshan",
        "stationAltitude": "120.0",
        "longitude": "121.025192",
        "latitude": "24.735006",
        "countyName": "新竹縣",
        "stationAddress": "寶山鄉新湖路280號旁",
        "startDate": "2007-12-01",
        "endDate": null,
        "status": "現存測站",
        "note": null,
        "originalStationID": null,
        "newStationID": null
       },
       {
        "stationID": "C0D590",
        "stationName": "新豐",
        "stationNameEN": "Sinfong",
        "stationAltitude": "143.0",
        "longitude": "120.977210",
        "latitude": "24.870680",
        "countyName": "新竹縣",
        "stationAddress": "新豐鄉上坑村坑子口102-1號(小叮噹科學遊樂區內)",
        "startDate": "2007-10-01",
        "endDate": null,
        "status": "現存測站",
        "note": "原(C0C580)站因縣市代碼不符，於2008/2/25重新編碼為(C0D590)站。",
        "originalStationID": "C0C580",
        "newStationID": null
       },
       {
        "stationID": "C0D650",
        "stationName": "湖口",
        "stationNameEN": "Hukou",
        "stationAltitude": "97.0",
        "longitude": "121.043628",
        "latitude": "24.904794",
        "countyName": "新竹縣",
        "stationAddress": "湖口鄉信勢村三鄰成功路109號(湖口消防分隊)",
        "startDate": "2013-10-01",
        "endDate": null,
        "status": "現存測站",
        "note": null,
        "originalStationID": null,
        "newStationID": null
       },
       {
        "stationID": "C0D660",
        "stationName": "新竹市東區",
        "stationNameEN": "Dongqu Hsinshu City",
        "stationAltitude": "65.0",
        "longitude": "120.986947",
        "latitude": "24.798676",
        "countyName": "新竹市",
        "stationAddress": "東區光復路二段321號（工研院光復院區6館）",
        "startDate": "2014-11-01",
        "endDate": null,
        "status": "現存測站",
        "note": null,
        "originalStationID": null,
        "newStationID": null
       },
       {
        "stationID": "C0E410",
        "stationName": "觀霧",
        "stationNameEN": "Guanwu",
        "stationAltitude": "2087.0",
        "longitude": "121.113183",
        "latitude": "24.506006",
        "countyName": "新竹縣",
        "stationAddress": "五峰鄉及苗栗縣泰安鄉交界(林務局觀霧國家森林遊樂區遊客中心左前方往樂山基地之路旁)",
        "startDate": "1987-06-01",
        "endDate": "2007-06-22",
        "status": "已撤銷",
        "note": null,
        "originalStationID": null,
        "newStationID": null
       },
       {
        "stationID": "C0E420",
        "stationName": "竹南",
        "stationNameEN": "Jhunan",
        "stationAltitude": "19.0",
        "longitude": "120.888897",
        "latitude": "24.708978",
        "countyName": "苗栗縣",
        "stationAddress": "竹南鎮大埔里仁愛路1092號(竹南鎮大埔國民小學內)",
        "startDate": "1987-06-01",
        "endDate": null,
        "status": "現存測站",
        "note": null,
        "originalStationID": null,
        "newStationID": null
       },
       {
        "stationID": "C0E430",
        "stationName": "南庄",
        "stationNameEN": "Nanzhuang",
        "stationAltitude": "258.0",
        "longitude": "121.000214",
        "latitude": "24.601775",
        "countyName": "苗栗縣",
        "stationAddress": "南庄鄉東村文化路3號(南庄國小校園內)",
        "startDate": "1987-06-01",
        "endDate": null,
        "status": "現存測站",
        "note": null,
        "originalStationID": null,
        "newStationID": null
       },
       {
        "stationID": "C0E440",
        "stationName": "大河",
        "stationNameEN": "Dahaes",
        "stationAltitude": "122.0",
        "longitude": "120.946850",
        "latitude": "24.617281",
        "countyName": "苗栗縣",
        "stationAddress": "三灣鄉大河村64號(大河國小校園內)",
        "startDate": "2008-01-01",
        "endDate": "2015-07-23",
        "status": "已撤銷",
        "note": "原(C1E440)站因擴充為氣象站，於2008/1/1升級為(C0E440)站。",
        "originalStationID": "C1E440",
        "newStationID": null
       },
       {
        "stationID": "C0E520",
        "stationName": "大湖",
        "stationNameEN": "Dahu",
        "stationAltitude": "320.0",
        "longitude": "120.870870",
        "latitude": "24.414940",
        "countyName": "苗栗縣",
        "stationAddress": "大湖鄉大寮村5鄰竹高屋34-1號附近",
        "startDate": "2011-11-01",
        "endDate": null,
        "status": "現存測站",
        "note": "原(C1E520)站因擴充為氣象站，於2011/11/1升級為(C0E520)站。",
        "originalStationID": "C1E520",
        "newStationID": null
       },
       {
        "stationID": "C0E530",
        "stationName": "三義",
        "stationNameEN": "Sanyi",
        "stationAltitude": "341.0",
        "longitude": "120.765972",
        "latitude": "24.410933",
        "countyName": "苗栗縣",
        "stationAddress": "三義鄉廣盛村10鄰122號(三義高中內)",
        "startDate": "1990-07-01",
        "endDate": "2020-01-06",
        "status": "已撤銷",
        "note": null,
        "originalStationID": null,
        "newStationID": null
       },
       {
        "stationID": "C0E540",
        "stationName": "後龍",
        "stationNameEN": "Houlong",
        "stationAltitude": "32.0",
        "longitude": "120.783933",
        "latitude": "24.606489",
        "countyName": "苗栗縣",
        "stationAddress": "後龍鎮後龍溪橋旁高地",
        "startDate": "2011-11-01",
        "endDate": null,
        "status": "現存測站",
        "note": "原(C1E540)站因擴充為氣象站，於2011/11/1升級為(C0E540)站。",
        "originalStationID": "C1E540",
        "newStationID": null
       },
       {
        "stationID": "C0E550",
        "stationName": "明德",
        "stationNameEN": "Mingde",
        "stationAltitude": "84.0",
        "longitude": "120.885411",
        "latitude": "24.583486",
        "countyName": "苗栗縣",
        "stationAddress": "頭屋鄉明德水庫水利工作站屋頂上",
        "startDate": "2011-11-01",
        "endDate": null,
        "status": "現存測站",
        "note": "原(C1E550)站因擴充為氣象站，於2011/11/1升級為(C0E550)站。",
        "originalStationID": "C1E550",
        "newStationID": null
       },
       {
        "stationID": "C0E580",
        "stationName": "苑里",
        "stationNameEN": "Yuanli",
        "stationAltitude": "60.0",
        "longitude": "120.680122",
        "latitude": "24.433525",
        "countyName": "苗栗縣",
        "stationAddress": "苑裡鎮",
        "startDate": "1990-07-21",
        "endDate": "2011-06-13",
        "status": "已撤銷",
        "note": null,
        "originalStationID": null,
        "newStationID": null
       },
       {
        "stationID": "C0E590",
        "stationName": "通霄",
        "stationNameEN": "Tongxiao",
        "stationAltitude": "40.0",
        "longitude": "120.704622",
        "latitude": "24.471892",
        "countyName": "苗栗縣",
        "stationAddress": "通霄鎮城北里1鄰13號(通霄鎮城中國民小學內)",
        "startDate": "2011-11-01",
        "endDate": null,
        "status": "現存測站",
        "note": "原(C1E590)站因擴充為氣象站，於2011/11/1升級為(C0E590)站，原為土城雨量站。",
        "originalStationID": "C1E590",
        "newStationID": null
       },
       {
        "stationID": "C0E610",
        "stationName": "馬都安",
        "stationNameEN": "Madu-an",
        "stationAltitude": "850.0",
        "longitude": "120.930192",
        "latitude": "24.451272",
        "countyName": "苗栗縣",
        "stationAddress": "泰安鄉錦水村(由泰安開車約2小時瞭望台旁)",
        "startDate": "1990-07-21",
        "endDate": null,
        "status": "現存測站",
        "note": null,
        "originalStationID": null,
        "newStationID": null
       },
       {
        "stationID": "C0E730",
        "stationName": "頭份",
        "stationNameEN": "Toufen",
        "stationAltitude": "26.0",
        "longitude": "120.912206",
        "latitude": "24.688247",
        "countyName": "苗栗縣",
        "stationAddress": "頭份市中正路219號(苗栗縣頭份鎮頭份國小校園內)",
        "startDate": "2007-12-01",
        "endDate": null,
        "status": "現存測站",
        "note": null,
        "originalStationID": null,
        "newStationID": null
       },
       {
        "stationID": "C0E740",
        "stationName": "造橋",
        "stationNameEN": "Zaoqiao",
        "stationAltitude": "27.0",
        "longitude": "120.864778",
        "latitude": "24.637056",
        "countyName": "苗栗縣",
        "stationAddress": "造橋鄉造橋村14鄰3號(造橋國小)",
        "startDate": "2011-11-01",
        "endDate": null,
        "status": "現存測站",
        "note": null,
        "originalStationID": null,
        "newStationID": null
       },
       {
        "stationID": "C0E750",
        "stationName": "苗栗",
        "stationNameEN": "Miaoli",
        "stationAltitude": "62.0",
        "longitude": "120.824575",
        "latitude": "24.564569",
        "countyName": "苗栗縣",
        "stationAddress": "苗栗市中正路241號(建功國小)",
        "startDate": "2011-11-01",
        "endDate": null,
        "status": "現存測站",
        "note": null,
        "originalStationID": null,
        "newStationID": null
       },
       {
        "stationID": "C0E760",
        "stationName": "苑裡",
        "stationNameEN": "Yuanli",
        "stationAltitude": "19.0",
        "longitude": "120.658231",
        "latitude": "24.448539",
        "countyName": "苗栗縣",
        "stationAddress": "苑裡鎮育才街100號(國立苑裡高中)",
        "startDate": "2011-11-01",
        "endDate": "2013-07-13",
        "status": "已撤銷",
        "note": null,
        "originalStationID": null,
        "newStationID": null
       },
       {
        "stationID": "C0E780",
        "stationName": "銅鑼",
        "stationNameEN": "Tongluo",
        "stationAltitude": "160.0",
        "longitude": "120.790853",
        "latitude": "24.489681",
        "countyName": "苗栗縣",
        "stationAddress": "銅鑼鄉福興村文化街1號(銅鑼國小)",
        "startDate": "2011-11-01",
        "endDate": null,
        "status": "現存測站",
        "note": null,
        "originalStationID": null,
        "newStationID": null
       },
       {
        "stationID": "C0E790",
        "stationName": "卓蘭",
        "stationNameEN": "Zhuolan",
        "stationAltitude": "344.0",
        "longitude": "120.824753",
        "latitude": "24.312764",
        "countyName": "苗栗縣",
        "stationAddress": "卓蘭鎮中山路127號(卓蘭鎮公所)",
        "startDate": "2011-11-01",
        "endDate": null,
        "status": "現存測站",
        "note": null,
        "originalStationID": null,
        "newStationID": null
       },
       {
        "stationID": "C0E810",
        "stationName": "西湖",
        "stationNameEN": "Xihu",
        "stationAltitude": "53.0",
        "longitude": "120.748500",
        "latitude": "24.562947",
        "countyName": "苗栗縣",
        "stationAddress": "西湖鄉二湖村2鄰22號(僑文國小)",
        "startDate": "2011-11-01",
        "endDate": null,
        "status": "現存測站",
        "note": null,
        "originalStationID": null,
        "newStationID": null
       },
       {
        "stationID": "C0E820",
        "stationName": "獅潭",
        "stationNameEN": "Shitan",
        "stationAltitude": "220.0",
        "longitude": "120.920042",
        "latitude": "24.539133",
        "countyName": "苗栗縣",
        "stationAddress": "獅潭鄉新店村11鄰103-2號(獅潭鄉公所圖書館樓頂)",
        "startDate": "2011-12-01",
        "endDate": null,
        "status": "現存測站",
        "note": null,
        "originalStationID": null,
        "newStationID": null
       },
       {
        "stationID": "C0E830",
        "stationName": "苑裡",
        "stationNameEN": "YUANLI",
        "stationAltitude": "37.0",
        "longitude": "120.653053",
        "latitude": "24.439714",
        "countyName": "苗栗縣",
        "stationAddress": "苑裡鎮信義路1號(苑裡鎮公所)",
        "startDate": "2013-12-01",
        "endDate": null,
        "status": "現存測站",
        "note": null,
        "originalStationID": null,
        "newStationID": null
       },
       {
        "stationID": "C0E850",
        "stationName": "大河",
        "stationNameEN": "Dahe",
        "stationAltitude": "104.0",
        "longitude": "120.948578",
        "latitude": "24.618069",
        "countyName": "苗栗縣",
        "stationAddress": "三灣鄉大河村48號(大河派出所)",
        "startDate": "2015-08-04",
        "endDate": null,
        "status": "現存測站",
        "note": null,
        "originalStationID": null,
        "newStationID": null
       },
       {
        "stationID": "C0E870",
        "stationName": "高鐵苗栗",
        "stationNameEN": "THSR Miaoli",
        "stationAltitude": "34.0",
        "longitude": "120.826094",
        "latitude": "24.607250",
        "countyName": "苗栗縣",
        "stationAddress": "後龍鎮高鐵三路268號(高鐵苗栗站外)",
        "startDate": "2017-08-01",
        "endDate": null,
        "status": "現存測站",
        "note": null,
        "originalStationID": null,
        "newStationID": null
       },
       {
        "stationID": "C0E880",
        "stationName": "三義",
        "stationNameEN": "Sanyi",
        "stationAltitude": "507.0",
        "longitude": "120.752086",
        "latitude": "24.407808",
        "countyName": "苗栗縣",
        "stationAddress": "苗栗縣三義鄉八股段1149-3地號（三義慈濟山茶園內）",
        "startDate": "2020-01-07",
        "endDate": null,
        "status": "現存測站",
        "note": null,
        "originalStationID": null,
        "newStationID": null
       },
       {
        "stationID": "C0F000",
        "stationName": "大肚",
        "stationNameEN": "Dadu",
        "stationAltitude": "273.0",
        "longitude": "120.572117",
        "latitude": "24.152950",
        "countyName": "臺中市",
        "stationAddress": "大肚區瑞井里遊園路一段2號(臺中區監理所內)",
        "startDate": "2011-11-01",
        "endDate": null,
        "status": "現存測站",
        "note": "原(C1F000)站因擴充為氣象站，於2011/11/1升級為(C0F000)站。",
        "originalStationID": "C1F000",
        "newStationID": null
       },
       {
        "stationID": "C0F0A0",
        "stationName": "雪山圈谷",
        "stationNameEN": "Xueshanjuangu",
        "stationAltitude": "3587.0",
        "longitude": "121.236339",
        "latitude": "24.388594",
        "countyName": "臺中市",
        "stationAddress": "和平區(往雪山主峰路上9.8公里處右邊)",
        "startDate": "2016-07-15",
        "endDate": null,
        "status": "現存測站",
        "note": null,
        "originalStationID": null,
        "newStationID": null
       },
       {
        "stationID": "C0F0B0",
        "stationName": "石岡",
        "stationNameEN": "Shigang",
        "stationAltitude": "311.0",
        "longitude": "120.777644",
        "latitude": "24.276061",
        "countyName": "臺中市",
        "stationAddress": "石岡區石岡街6號 (臺中市石岡區衛生所)",
        "startDate": "2016-10-01",
        "endDate": null,
        "status": "現存測站",
        "note": null,
        "originalStationID": null,
        "newStationID": null
       },
       {
        "stationID": "C0F0C0",
        "stationName": "中坑",
        "stationNameEN": "Zhongkeng",
        "stationAltitude": "983.0",
        "longitude": "120.903319",
        "latitude": "24.248517",
        "countyName": "臺中市",
        "stationAddress": "和平區中坑里中坑段39地號內",
        "startDate": "2017-06-14",
        "endDate": null,
        "status": "現存測站",
        "note": null,
        "originalStationID": null,
        "newStationID": null
       },
       {
        "stationID": "C0F0D0",
        "stationName": "審馬陣",
        "stationNameEN": "Shenmazhen",
        "stationAltitude": "3171.0",
        "longitude": "121.420300",
        "latitude": "24.381675",
        "countyName": "臺中市",
        "stationAddress": "和平區南湖大山指標16.2K處(審馬陣山附近)",
        "startDate": "2017-12-28",
        "endDate": null,
        "status": "現存測站",
        "note": null,
        "originalStationID": null,
        "newStationID": null
       },
       {
        "stationID": "C0F0E0",
        "stationName": "南湖圈谷",
        "stationNameEN": "Nanhuquangu",
        "stationAltitude": "3557.0",
        "longitude": "121.444667",
        "latitude": "24.363714",
        "countyName": "臺中市",
        "stationAddress": "和平區南湖大山指標20K處(南湖主峰東峰岔路附近)",
        "startDate": "2017-12-28",
        "endDate": null,
        "status": "現存測站",
        "note": null,
        "originalStationID": null,
        "newStationID": null
       },
       {
        "stationID": "C0F850",
        "stationName": "東勢",
        "stationNameEN": "Dongshi",
        "stationAltitude": "379.0",
        "longitude": "120.833047",
        "latitude": "24.246428",
        "countyName": "臺中市",
        "stationAddress": "東勢區東關路647號(東勢林區管理處雙崎工作站內)",
        "startDate": "2011-11-01",
        "endDate": null,
        "status": "現存測站",
        "note": "原(C1F850)站因擴充為氣象站，於2011/11/1升級為(C0F850)站。",
        "originalStationID": "C1F850",
        "newStationID": null
       },
       {
        "stationID": "C0F860",
        "stationName": "梨山",
        "stationNameEN": "Lishan",
        "stationAltitude": "1980.0",
        "longitude": "121.259270",
        "latitude": "24.255151",
        "countyName": "臺中市",
        "stationAddress": "和平區梨山里福壽路10號（梨山國小）",
        "startDate": "1990-07-21",
        "endDate": "2004-06-01",
        "status": "已撤銷",
        "note": null,
        "originalStationID": null,
        "newStationID": "C0F861"
       },
       {
        "stationID": "C0F861",
        "stationName": "梨山",
        "stationNameEN": "Lishan",
        "stationAltitude": "2215.0",
        "longitude": "121.243669",
        "latitude": "24.247522",
        "countyName": "臺中市",
        "stationAddress": "和平區梨山里福壽路29號（福壽山農場）",
        "startDate": "2004-07-01",
        "endDate": null,
        "status": "現存測站",
        "note": null,
        "originalStationID": "C0F860",
        "newStationID": null
       },
       {
        "stationID": "C0F900",
        "stationName": "雙崎",
        "stationNameEN": "Shuangqi",
        "stationAltitude": "535.0",
        "longitude": "120.904267",
        "latitude": "24.288581",
        "countyName": "臺中市",
        "stationAddress": "和平區自由里東崎路2段116號內",
        "startDate": "1990-07-21",
        "endDate": "2017-05-26",
        "status": "已撤銷",
        "note": null,
        "originalStationID": null,
        "newStationID": null
       },
       {
        "stationID": "C0F920",
        "stationName": "石岡",
        "stationNameEN": "Shigang",
        "stationAltitude": "290.0",
        "longitude": "120.770267",
        "latitude": "24.280117",
        "countyName": "臺中市",
        "stationAddress": "石岡區石岡里豐勢路1238號(石岡壩管理中心內)",
        "startDate": "2011-11-01",
        "endDate": "2016-09-12",
        "status": "已撤銷",
        "note": "原(C1F920)站因擴充為氣象站，於2011/11/1升級為(C0F920)站。",
        "originalStationID": "C1F920",
        "newStationID": null
       },
       {
        "stationID": "C0F930",
        "stationName": "大甲",
        "stationNameEN": "Dajia",
        "stationAltitude": "100.0",
        "longitude": "120.640403",
        "latitude": "24.347667",
        "countyName": "臺中市",
        "stationAddress": "大甲區開元路71號(大甲高級工業職業學校內)",
        "startDate": "2011-11-01",
        "endDate": null,
        "status": "現存測站",
        "note": "原(C1F930)站因擴充為氣象站，於2011/11/1升級為(C0F930)站。",
        "originalStationID": "C1F930",
        "newStationID": null
       },
       {
        "stationID": "C0F950",
        "stationName": "合歡山",
        "stationNameEN": "Hehuan Mountain",
        "stationAltitude": "3430.0",
        "longitude": "121.272592",
        "latitude": "24.143490",
        "countyName": "南投縣",
        "stationAddress": "仁愛鄉(近合歡山三角點，由松雪樓開車約15分鐘，大甲溪事業區第81林班)",
        "startDate": "1990-07-01",
        "endDate": "2008-02-24",
        "status": "已撤銷",
        "note": "原(C0F950)站因縣市代碼不符，於2008/2/25重新編碼為(C0H9C0)站。",
        "originalStationID": null,
        "newStationID": "C0H9C0"
       },
       {
        "stationID": "C0F970",
        "stationName": "大坑",
        "stationNameEN": "Dakeng",
        "stationAltitude": "145.0",
        "longitude": "120.722289",
        "latitude": "24.173142",
        "countyName": "臺中市",
        "stationAddress": "北屯區軍福十三路268號(東山消防分隊)",
        "startDate": "2011-11-01",
        "endDate": null,
        "status": "現存測站",
        "note": "原(C1F970)站因擴充為氣象站，於2011/11/1升級為(C0F970)站。",
        "originalStationID": "C1F970",
        "newStationID": null
       },
       {
        "stationID": "C0F990",
        "stationName": "橫山",
        "stationNameEN": "Hengshan",
        "stationAltitude": "253.0",
        "longitude": "120.607306",
        "latitude": "24.219111",
        "countyName": "臺中市",
        "stationAddress": "大雅區橫山通山路46號(台中高爾球場辦公室後面)",
        "startDate": "2008-04-01",
        "endDate": "2015-07-30",
        "status": "已撤銷",
        "note": "原(C1F990)站因擴充為氣象站，於2008/4/1升級為(C0F990)站。",
        "originalStationID": "C1F990",
        "newStationID": null
       },
       {
        "stationID": "C0F9A0",
        "stationName": "中竹林",
        "stationNameEN": "Zhongzhulin",
        "stationAltitude": "425.0",
        "longitude": "120.751061",
        "latitude": "24.103556",
        "countyName": "臺中市",
        "stationAddress": "太平區長龍路中埔二號橋至站址直線距離約1.7km",
        "startDate": "2011-11-01",
        "endDate": null,
        "status": "現存測站",
        "note": "原(C1F9A0)站因擴充為氣象站，於2011/11/1升級為(C0F9A0)站。",
        "originalStationID": "C1F9A0",
        "newStationID": null
       },
       {
        "stationID": "C0F9I0",
        "stationName": "神岡",
        "stationNameEN": "Shengang",
        "stationAltitude": "194.0",
        "longitude": "120.658314",
        "latitude": "24.272481",
        "countyName": "臺中市",
        "stationAddress": "神岡區三民路639號(圳堵國小校園南側大樓屋頂平台)",
        "startDate": "2011-11-01",
        "endDate": null,
        "status": "現存測站",
        "note": "原(C1F9I0)站因擴充為氣象站，於2011/11/1升級為(C0F9I0)站。",
        "originalStationID": "C1F9I0",
        "newStationID": null
       },
       {
        "stationID": "C0F9K0",
        "stationName": "大安",
        "stationNameEN": "Da-an",
        "stationAltitude": "30.0",
        "longitude": "120.588025",
        "latitude": "24.345061",
        "countyName": "臺中市",
        "stationAddress": "大安區中庄里中山南路296號(大安國小)",
        "startDate": "2011-11-01",
        "endDate": null,
        "status": "現存測站",
        "note": null,
        "originalStationID": null,
        "newStationID": null
       },
       {
        "stationID": "C0F9L0",
        "stationName": "后里",
        "stationNameEN": "Houli",
        "stationAltitude": "253.0",
        "longitude": "120.729725",
        "latitude": "24.310436",
        "countyName": "臺中市",
        "stationAddress": "后里區甲后路110號(后里國小)",
        "startDate": "2011-11-01",
        "endDate": null,
        "status": "現存測站",
        "note": null,
        "originalStationID": null,
        "newStationID": null
       },
       {
        "stationID": "C0F9M0",
        "stationName": "豐原",
        "stationNameEN": "Fengyuan",
        "stationAltitude": "230.0",
        "longitude": "120.720692",
        "latitude": "24.254322",
        "countyName": "臺中市",
        "stationAddress": "豐原區豐榮里12鄰新生北路155號(豐原國小)",
        "startDate": "2011-11-01",
        "endDate": null,
        "status": "現存測站",
        "note": null,
        "originalStationID": null,
        "newStationID": null
       },
       {
        "stationID": "C0F9N0",
        "stationName": "大里",
        "stationNameEN": "Dali",
        "stationAltitude": "75.0",
        "longitude": "120.701378",
        "latitude": "24.092464",
        "countyName": "臺中市",
        "stationAddress": "大里區文化街120號(塗城國小)",
        "startDate": "2011-11-01",
        "endDate": null,
        "status": "現存測站",
        "note": null,
        "originalStationID": null,
        "newStationID": null
       },
       {
        "stationID": "C0F9O0",
        "stationName": "潭子",
        "stationNameEN": "Tanzi",
        "stationAltitude": "175.0",
        "longitude": "120.703933",
        "latitude": "24.213106",
        "countyName": "臺中市",
        "stationAddress": "潭子區中山路二段435號(潭子國小)",
        "startDate": "2011-11-01",
        "endDate": null,
        "status": "現存測站",
        "note": null,
        "originalStationID": null,
        "newStationID": null
       },
       {
        "stationID": "C0F9P0",
        "stationName": "清水",
        "stationNameEN": "Qingshui",
        "stationAltitude": "26.0",
        "longitude": "120.562242",
        "latitude": "24.312297",
        "countyName": "臺中市",
        "stationAddress": "清水區護岸路37號(高美國小)",
        "startDate": "2011-11-01",
        "endDate": null,
        "status": "現存測站",
        "note": null,
        "originalStationID": null,
        "newStationID": null
       },
       {
        "stationID": "C0F9Q0",
        "stationName": "外埔",
        "stationNameEN": "Waipu",
        "stationAltitude": "149.0",
        "longitude": "120.705686",
        "latitude": "24.347817",
        "countyName": "臺中市",
        "stationAddress": "外埔區土城里土城西路55號(安定國小)",
        "startDate": "2011-11-01",
        "endDate": null,
        "status": "現存測站",
        "note": null,
        "originalStationID": null,
        "newStationID": null
       },
       {
        "stationID": "C0F9R0",
        "stationName": "龍井",
        "stationNameEN": "Longjing",
        "stationAltitude": "20.0",
        "longitude": "120.528972",
        "latitude": "24.184536",
        "countyName": "臺中市",
        "stationAddress": "龍井區西里龍門路51號(龍井國小)",
        "startDate": "2011-11-01",
        "endDate": null,
        "status": "現存測站",
        "note": null,
        "originalStationID": null,
        "newStationID": null
       },
       {
        "stationID": "C0F9S0",
        "stationName": "烏日",
        "stationNameEN": "Wuri",
        "stationAltitude": "43.0",
        "longitude": "120.624103",
        "latitude": "24.107058",
        "countyName": "臺中市",
        "stationAddress": "烏日區中山路二段196號(烏日國小)",
        "startDate": "2011-11-01",
        "endDate": null,
        "status": "現存測站",
        "note": null,
        "originalStationID": null,
        "newStationID": null
       },
       {
        "stationID": "C0F9T0",
        "stationName": "西屯",
        "stationNameEN": "Xitun",
        "stationAltitude": "111.0",
        "longitude": "120.641275",
        "latitude": "24.179494",
        "countyName": "臺中市",
        "stationAddress": "西屯區西屯路二段300號(西屯國小)",
        "startDate": "2011-11-01",
        "endDate": null,
        "status": "現存測站",
        "note": null,
        "originalStationID": null,
        "newStationID": null
       },
       {
        "stationID": "C0F9U0",
        "stationName": "南屯",
        "stationNameEN": "Nantun",
        "stationAltitude": "74.0",
        "longitude": "120.637969",
        "latitude": "24.137006",
        "countyName": "臺中市",
        "stationAddress": "南屯區黎明路一段968號(南屯國小)",
        "startDate": "2011-11-01",
        "endDate": null,
        "status": "現存測站",
        "note": null,
        "originalStationID": null,
        "newStationID": null
       },
       {
        "stationID": "C0F9V0",
        "stationName": "新社",
        "stationNameEN": "Xinshe",
        "stationAltitude": "525.0",
        "longitude": "120.815806",
        "latitude": "24.200172",
        "countyName": "臺中市",
        "stationAddress": "新社區大南里興中街46號(農委會種苗改良繁殖場)",
        "startDate": "2011-11-01",
        "endDate": null,
        "status": "現存測站",
        "note": null,
        "originalStationID": null,
        "newStationID": null
       },
       {
        "stationID": "C0F9X0",
        "stationName": "大雅(中科園區)",
        "stationNameEN": "Daya",
        "stationAltitude": "166.0",
        "longitude": "120.624450",
        "latitude": "24.215280",
        "countyName": "臺中市",
        "stationAddress": "大雅區中部科學工業園區臺中園區(汙水處理機房樓頂)",
        "startDate": "2015-08-21",
        "endDate": null,
        "status": "現存測站",
        "note": null,
        "originalStationID": null,
        "newStationID": null
       },
       {
        "stationID": "C0F9Y0",
        "stationName": "桃山",
        "stationNameEN": "Taoshan",
        "stationAltitude": "3313.0",
        "longitude": "121.303808",
        "latitude": "24.432739",
        "countyName": "臺中市",
        "stationAddress": "和平區(位於往桃山山屋叉路解說牌附近)",
        "startDate": "2016-07-15",
        "endDate": null,
        "status": "現存測站",
        "note": null,
        "originalStationID": null,
        "newStationID": null
       },
       {
        "stationID": "C0F9Z0",
        "stationName": "雪山東峰",
        "stationNameEN": "Xueshandongfeng",
        "stationAltitude": "3193.0",
        "longitude": "121.268675",
        "latitude": "24.388792",
        "countyName": "臺中市",
        "stationAddress": "和平區(位於雪山東峰直升機停機坪東南東方60公尺處)",
        "startDate": "2016-07-15",
        "endDate": null,
        "status": "現存測站",
        "note": null,
        "originalStationID": null,
        "newStationID": null
       },
       {
        "stationID": "C0FA00",
        "stationName": "烏石坑",
        "stationNameEN": "Shinmei",
        "stationAltitude": "983.0",
        "longitude": "120.947620",
        "latitude": "24.273500",
        "countyName": "臺中市",
        "stationAddress": "和平區東崎路2段烏石巷109號",
        "startDate": "2020-10-31",
        "endDate": null,
        "status": "現存測站",
        "note": null,
        "originalStationID": null,
        "newStationID": null
       },
       {
        "stationID": "C0G620",
        "stationName": "芬園",
        "stationNameEN": "Fenyuan",
        "stationAltitude": "110.0",
        "longitude": "120.621300",
        "latitude": "24.015678",
        "countyName": "彰化縣",
        "stationAddress": "芬園鄉楓坑村大埔崙產業道路上(芬園往臺灣民俗村路上)",
        "startDate": "2011-11-01",
        "endDate": null,
        "status": "現存測站",
        "note": "原(C1G620)站因擴充為氣象站，於2011/11/1升級為(C0G620)站。",
        "originalStationID": "C1G620",
        "newStationID": null
       },
       {
        "stationID": "C0G640",
        "stationName": "鹿港",
        "stationNameEN": "Lukang",
        "stationAltitude": "17.0",
        "longitude": "120.430481",
        "latitude": "24.075300",
        "countyName": "彰化縣",
        "stationAddress": "鹿港鎮海埔里顏厝巷67號(行政院退輔會魚殖管理處彰化分場內)",
        "startDate": "1992-07-01",
        "endDate": null,
        "status": "現存測站",
        "note": null,
        "originalStationID": null,
        "newStationID": null
       },
       {
        "stationID": "C0G650",
        "stationName": "員林",
        "stationNameEN": "Yuanlin",
        "stationAltitude": "34.0",
        "longitude": "120.585597",
        "latitude": "23.946503",
        "countyName": "彰化縣",
        "stationAddress": "員林市萬年里明倫路2號(明倫國中內)",
        "startDate": "1992-07-01",
        "endDate": null,
        "status": "現存測站",
        "note": null,
        "originalStationID": null,
        "newStationID": null
       },
       {
        "stationID": "C0G660",
        "stationName": "溪湖",
        "stationNameEN": "Xihu",
        "stationAltitude": "27.0",
        "longitude": "120.479122",
        "latitude": "23.948350",
        "countyName": "彰化縣",
        "stationAddress": "溪湖鎮大竹里彰水路2段725號(湖南國民小學內)",
        "startDate": "2011-11-01",
        "endDate": null,
        "status": "現存測站",
        "note": "原(C1G660)站因擴充為氣象站，於2011/11/1升級為(C0G660)站。",
        "originalStationID": "C1G660",
        "newStationID": null
       },
       {
        "stationID": "C0G710",
        "stationName": "台西",
        "stationNameEN": "Taisi",
        "stationAltitude": "64.0",
        "longitude": "120.279800",
        "latitude": "23.848489",
        "countyName": "彰化縣",
        "stationAddress": "大城鄉臺西村許厝巷2之10號旁",
        "startDate": "1992-07-01",
        "endDate": "2015-05-25",
        "status": "已撤銷",
        "note": null,
        "originalStationID": null,
        "newStationID": null
       },
       {
        "stationID": "C0G720",
        "stationName": "溪州",
        "stationNameEN": "Xizhou",
        "stationAltitude": "50.0",
        "longitude": "120.499093",
        "latitude": "23.851589",
        "countyName": "彰化縣",
        "stationAddress": "溪州鄉溪下路四段560號(溪州鄉公所)",
        "startDate": "2015-07-03",
        "endDate": null,
        "status": "現存測站",
        "note": null,
        "originalStationID": null,
        "newStationID": null
       },
       {
        "stationID": "C0G730",
        "stationName": "二林",
        "stationNameEN": "Erlin",
        "stationAltitude": "27.0",
        "longitude": "120.376081",
        "latitude": "23.903325",
        "countyName": "彰化縣",
        "stationAddress": "二林鎮仁愛路200號(二林消防分隊)",
        "startDate": "2015-07-03",
        "endDate": null,
        "status": "現存測站",
        "note": "原中西(C1G700)站因移位及擴充為氣象站，於2015/7/1升級為(C0G730)站，站名更變為二林。",
        "originalStationID": "C1G700",
        "newStationID": null
       },
       {
        "stationID": "C0G740",
        "stationName": "大城",
        "stationNameEN": "Dacheng",
        "stationAltitude": "24.0",
        "longitude": "120.320935",
        "latitude": "23.852487",
        "countyName": "彰化縣",
        "stationAddress": "大城鄉東城村中平路185號(大城鄉公所)",
        "startDate": "2015-07-03",
        "endDate": null,
        "status": "現存測站",
        "note": null,
        "originalStationID": null,
        "newStationID": null
       },
       {
        "stationID": "C0G750",
        "stationName": "竹塘",
        "stationNameEN": "Zhutang",
        "stationAltitude": "31.0",
        "longitude": "120.382486",
        "latitude": "23.846617",
        "countyName": "彰化縣",
        "stationAddress": "竹塘鄉永安村東陽路二段221號(永安派出所)",
        "startDate": "2015-07-03",
        "endDate": null,
        "status": "現存測站",
        "note": null,
        "originalStationID": null,
        "newStationID": null
       },
       {
        "stationID": "C0G760",
        "stationName": "高鐵彰化",
        "stationNameEN": "THSR Changhua",
        "stationAltitude": "53.0",
        "longitude": "120.574608",
        "latitude": "23.875247",
        "countyName": "彰化縣",
        "stationAddress": "田中鎮站區路二段99號(高鐵彰化站外)",
        "startDate": "2017-08-01",
        "endDate": null,
        "status": "現存測站",
        "note": null,
        "originalStationID": null,
        "newStationID": null
       },
       {
        "stationID": "C0G770",
        "stationName": "福興",
        "stationNameEN": "Fuxing",
        "stationAltitude": "15.0",
        "longitude": "120.437669",
        "latitude": "24.041289",
        "countyName": "彰化縣",
        "stationAddress": "福興鄉員鹿路二段270號(福興國中)",
        "startDate": "2011-11-01",
        "endDate": null,
        "status": "現存測站",
        "note": null,
        "originalStationID": null,
        "newStationID": null
       },
       {
        "stationID": "C0G780",
        "stationName": "秀水",
        "stationNameEN": "Xiushui",
        "stationAltitude": "27.0",
        "longitude": "120.503869",
        "latitude": "24.034050",
        "countyName": "彰化縣",
        "stationAddress": "秀水鄉安東村中山路257號(秀水國小)",
        "startDate": "2011-11-01",
        "endDate": null,
        "status": "現存測站",
        "note": null,
        "originalStationID": null,
        "newStationID": null
       },
       {
        "stationID": "C0G790",
        "stationName": "花壇",
        "stationNameEN": "Huatan",
        "stationAltitude": "27.0",
        "longitude": "120.552328",
        "latitude": "24.016069",
        "countyName": "彰化縣",
        "stationAddress": "花壇鄉中庄村中橋街226號(華南國小)",
        "startDate": "2011-04-10",
        "endDate": "2019-12-20",
        "status": "已撤銷",
        "note": null,
        "originalStationID": null,
        "newStationID": null
       },
       {
        "stationID": "C0G800",
        "stationName": "埔鹽",
        "stationNameEN": "Puyan",
        "stationAltitude": "15.0",
        "longitude": "120.431683",
        "latitude": "24.000394",
        "countyName": "彰化縣",
        "stationAddress": "埔鹽鄉永樂村永樂路600號(永樂國小)",
        "startDate": "2011-11-01",
        "endDate": null,
        "status": "現存測站",
        "note": null,
        "originalStationID": null,
        "newStationID": null
       },
       {
        "stationID": "C0G810",
        "stationName": "埔心",
        "stationNameEN": "Puxin",
        "stationAltitude": "26.0",
        "longitude": "120.525456",
        "latitude": "23.947633",
        "countyName": "彰化縣",
        "stationAddress": "埔心鄉舊館村員鹿路四段201號(舊館國小)",
        "startDate": "2011-11-01",
        "endDate": null,
        "status": "現存測站",
        "note": null,
        "originalStationID": null,
        "newStationID": null
       },
       {
        "stationID": "C0G820",
        "stationName": "田尾",
        "stationNameEN": "Tianwei",
        "stationAltitude": "29.0",
        "longitude": "120.509389",
        "latitude": "23.901669",
        "countyName": "彰化縣",
        "stationAddress": "田尾鄉中正路二段101號(仁豐國小)",
        "startDate": "2011-11-01",
        "endDate": null,
        "status": "現存測站",
        "note": null,
        "originalStationID": null,
        "newStationID": null
       },
       {
        "stationID": "C0G830",
        "stationName": "埤頭",
        "stationNameEN": "Pitou",
        "stationAltitude": "27.0",
        "longitude": "120.452806",
        "latitude": "23.866003",
        "countyName": "彰化縣",
        "stationAddress": "埤頭鄉大湖村大湖路260號(大湖國小)",
        "startDate": "2011-11-01",
        "endDate": null,
        "status": "現存測站",
        "note": null,
        "originalStationID": null,
        "newStationID": null
       },
       {
        "stationID": "C0G840",
        "stationName": "北斗",
        "stationNameEN": "Beidou",
        "stationAltitude": "32.0",
        "longitude": "120.514222",
        "latitude": "23.877586",
        "countyName": "彰化縣",
        "stationAddress": "北斗鎮斗苑路二段150號(螺陽國小)",
        "startDate": "2011-11-01",
        "endDate": null,
        "status": "現存測站",
        "note": null,
        "originalStationID": null,
        "newStationID": null
       },
       {
        "stationID": "C0G850",
        "stationName": "田中",
        "stationNameEN": "Tianzhong",
        "stationAltitude": "62.0",
        "longitude": "120.588261",
        "latitude": "23.856778",
        "countyName": "彰化縣",
        "stationAddress": "田中鎮中州路一段177號(田中國小)",
        "startDate": "2011-11-01",
        "endDate": "2019-10-29",
        "status": "已撤銷",
        "note": null,
        "originalStationID": null,
        "newStationID": null
       },
       {
        "stationID": "C0G860",
        "stationName": "社頭",
        "stationNameEN": "Shetou",
        "stationAltitude": "45.0",
        "longitude": "120.586200",
        "latitude": "23.897647",
        "countyName": "彰化縣",
        "stationAddress": "社頭鄉社斗路一段258號(社頭國小)",
        "startDate": "2011-11-01",
        "endDate": null,
        "status": "現存測站",
        "note": null,
        "originalStationID": null,
        "newStationID": null
       },
       {
        "stationID": "C0G870",
        "stationName": "芳苑",
        "stationNameEN": "Fangyuan",
        "stationAltitude": "12.0",
        "longitude": "120.320025",
        "latitude": "23.922303",
        "countyName": "彰化縣",
        "stationAddress": "芳苑鄉仁愛村斗苑路芳苑段211號(芳苑國中)",
        "startDate": "2011-11-01",
        "endDate": null,
        "status": "現存測站",
        "note": null,
        "originalStationID": null,
        "newStationID": null
       },
       {
        "stationID": "C0G880",
        "stationName": "二水",
        "stationNameEN": "Ershui",
        "stationAltitude": "92.0",
        "longitude": "120.617300",
        "latitude": "23.810742",
        "countyName": "彰化縣",
        "stationAddress": "二水鄉文化村119號(二水國小)",
        "startDate": "2011-11-01",
        "endDate": null,
        "status": "現存測站",
        "note": null,
        "originalStationID": null,
        "newStationID": null
       },
       {
        "stationID": "C0G890",
        "stationName": "伸港",
        "stationNameEN": "Shenggang",
        "stationAltitude": "24.0",
        "longitude": "120.484403",
        "latitude": "24.148933",
        "countyName": "彰化縣",
        "stationAddress": "伸港鄉新港村和平路60號(新港國小)",
        "startDate": "2011-11-01",
        "endDate": null,
        "status": "現存測站",
        "note": null,
        "originalStationID": null,
        "newStationID": null
       },
       {
        "stationID": "C0G900",
        "stationName": "線西",
        "stationNameEN": "xianxi",
        "stationAltitude": "20.0",
        "longitude": "120.443536",
        "latitude": "24.143358",
        "countyName": "彰化縣",
        "stationAddress": "線西鄉慶福路300號（彰濱工業區線西服務大樓內)",
        "startDate": "2019-11-22",
        "endDate": null,
        "status": "現存測站",
        "note": null,
        "originalStationID": null,
        "newStationID": null
       },
       {
        "stationID": "C0G910",
        "stationName": "花壇",
        "stationNameEN": "Huatan",
        "stationAltitude": "42.0",
        "longitude": "120.549461",
        "latitude": "24.032076",
        "countyName": "彰化縣",
        "stationAddress": "彰化縣花壇鄉彰員路2段580號（花壇國中內）",
        "startDate": "2019-12-20",
        "endDate": null,
        "status": "現存測站",
        "note": null,
        "originalStationID": null,
        "newStationID": null
       },
       {
        "stationID": "C0H890",
        "stationName": "埔里",
        "stationNameEN": "Puli",
        "stationAltitude": "440.0",
        "longitude": "120.952425",
        "latitude": "23.972169",
        "countyName": "南投縣",
        "stationAddress": "埔里鎮大城里大城路169號(南投縣立大成國民中學內)",
        "startDate": "2016-01-01",
        "endDate": null,
        "status": "現存測站",
        "note": "原大肚城(C1H890)站因擴充為氣象站，於2015/9/4升級為(C0H890)站，站名更變為埔里。",
        "originalStationID": "C1H890",
        "newStationID": null
       },
       {
        "stationID": "C0H950",
        "stationName": "中寮",
        "stationNameEN": "Zhongliao",
        "stationAltitude": "192.0",
        "longitude": "120.766406",
        "latitude": "23.884447",
        "countyName": "南投縣",
        "stationAddress": "中寮鄉復興村初中巷50號(中寮國中校園內)",
        "startDate": "2011-11-01",
        "endDate": null,
        "status": "現存測站",
        "note": "原(C1H950)站因擴充為氣象站，於2011/11/1升級為(C0H950)站。",
        "originalStationID": "C1H950",
        "newStationID": null
       },
       {
        "stationID": "C0H960",
        "stationName": "草屯",
        "stationNameEN": "Caotun",
        "stationAltitude": "120.0",
        "longitude": "120.680850",
        "latitude": "23.973672",
        "countyName": "南投縣",
        "stationAddress": "草屯鎮中山里草鞋墩1街8號(草屯鎮公所樓頂)",
        "startDate": "2011-11-01",
        "endDate": null,
        "status": "現存測站",
        "note": "原(C1H960)站因擴充為氣象站，於2011/11/1升級為(C0H960)站。",
        "originalStationID": "C1H960",
        "newStationID": null
       },
       {
        "stationID": "C0H980",
        "stationName": "中興新村",
        "stationNameEN": "Jhongsing Village",
        "stationAltitude": "83.0",
        "longitude": "120.995089",
        "latitude": "23.936278",
        "countyName": "南投縣",
        "stationAddress": "南投市中興新村",
        "startDate": "1992-05-01",
        "endDate": "1996-01-10",
        "status": "已撤銷",
        "note": null,
        "originalStationID": null,
        "newStationID": null
       },
       {
        "stationID": "C0H990",
        "stationName": "昆陽",
        "stationNameEN": "Kunyang",
        "stationAltitude": "3076.0",
        "longitude": "121.273642",
        "latitude": "24.121322",
        "countyName": "南投縣",
        "stationAddress": "仁愛鄉昆陽警察局後方下坡處(太魯閣國家公園)石碑後20公尺",
        "startDate": "1992-07-01",
        "endDate": null,
        "status": "現存測站",
        "note": "本站於2015/8/24起進行儀器汰換，並於2015/12/31完成驗收。",
        "originalStationID": null,
        "newStationID": null
       },
       {
        "stationID": "C0H9A0",
        "stationName": "神木村",
        "stationNameEN": "Shenmu Village",
        "stationAltitude": "1595.0",
        "longitude": "120.843667",
        "latitude": "23.532742",
        "countyName": "南投縣",
        "stationAddress": "信義鄉神木村神木工作分站後方山坡上(對高岳營林區29林班地444號土地)",
        "startDate": "1999-02-01",
        "endDate": null,
        "status": "現存測站",
        "note": "本站於2015/9/21起進行儀器汰換，並於2015/12/31完成驗收。",
        "originalStationID": null,
        "newStationID": null
       },
       {
        "stationID": "C0H9C0",
        "stationName": "合歡山",
        "stationNameEN": "Hehuan Mountain",
        "stationAltitude": "3402.0",
        "longitude": "121.272547",
        "latitude": "24.143442",
        "countyName": "南投縣",
        "stationAddress": "仁愛鄉(近合歡山三角點，由松雪樓開車約15分鐘，大甲溪事業區第81林班)",
        "startDate": "2008-02-25",
        "endDate": null,
        "status": "現存測站",
        "note": "原(C0F950)站因縣市代碼不符，於2008/2/25重新編碼為(C0H9C0)站。",
        "originalStationID": "C0F950",
        "newStationID": null
       },
       {
        "stationID": "C0I010",
        "stationName": "廬山",
        "stationNameEN": "Lushan",
        "stationAltitude": "1562.0",
        "longitude": "121.181808",
        "latitude": "24.033311",
        "countyName": "南投縣",
        "stationAddress": "仁愛鄉大同村仁和路21號(埔里-霧社收費站-盧山電力公司瞭望台)",
        "startDate": "1992-07-01",
        "endDate": null,
        "status": "現存測站",
        "note": "本站於2015/7/30起進行儀器汰換，並於2015/12/31完成驗收。",
        "originalStationID": null,
        "newStationID": null
       },
       {
        "stationID": "C0I080",
        "stationName": "信義",
        "stationNameEN": "Xinyi",
        "stationAltitude": "536.0",
        "longitude": "120.851036",
        "latitude": "23.689694",
        "countyName": "南投縣",
        "stationAddress": "信義鄉自強村綠美巷(內茅埔營林區23林班地)",
        "startDate": "2016-01-01",
        "endDate": null,
        "status": "現存測站",
        "note": "原(C1I080)站因擴充為氣象站，於2015/9/22升級為(C0I080)站。",
        "originalStationID": "C1I080",
        "newStationID": null
       },
       {
        "stationID": "C0I090",
        "stationName": "鳳凰",
        "stationNameEN": "Fonghuang",
        "stationAltitude": "910.0",
        "longitude": "120.787347",
        "latitude": "23.728081",
        "countyName": "南投縣",
        "stationAddress": "鹿谷鄉鳳凰鳥園旁",
        "startDate": "1992-07-01",
        "endDate": null,
        "status": "現存測站",
        "note": null,
        "originalStationID": null,
        "newStationID": null
       },
       {
        "stationID": "C0I110",
        "stationName": "竹山",
        "stationNameEN": "Zhushan",
        "stationAltitude": "161.0",
        "longitude": "120.688156",
        "latitude": "23.761225",
        "countyName": "南投縣",
        "stationAddress": "竹山鎮延和里向學街32號(竹山國民小學內)",
        "startDate": "1992-07-01",
        "endDate": null,
        "status": "現存測站",
        "note": null,
        "originalStationID": null,
        "newStationID": null
       },
       {
        "stationID": "C0I360",
        "stationName": "水里",
        "stationNameEN": "Shuili",
        "stationAltitude": "300.0",
        "longitude": "120.849792",
        "latitude": "23.812553",
        "countyName": "南投縣",
        "stationAddress": "水里鄉中山路一段515號(玉山國家公園管理處)",
        "startDate": "2016-01-01",
        "endDate": null,
        "status": "現存測站",
        "note": null,
        "originalStationID": null,
        "newStationID": null
       },
       {
        "stationID": "C0I370",
        "stationName": "魚池",
        "stationNameEN": "Yuchi",
        "stationAltitude": "671.0",
        "longitude": "120.941350",
        "latitude": "23.895703",
        "countyName": "南投縣",
        "stationAddress": "魚池鄉東池村魚池街194號(魚池鄉衛生所)",
        "startDate": "2016-01-01",
        "endDate": null,
        "status": "現存測站",
        "note": null,
        "originalStationID": null,
        "newStationID": null
       },
       {
        "stationID": "C0I380",
        "stationName": "集集",
        "stationNameEN": "Jiji",
        "stationAltitude": "258.0",
        "longitude": "120.801467",
        "latitude": "23.828206",
        "countyName": "南投縣",
        "stationAddress": "集集鎮民生東路1號(農委會特有生物研究保育中心)",
        "startDate": "2016-01-01",
        "endDate": null,
        "status": "現存測站",
        "note": null,
        "originalStationID": null,
        "newStationID": null
       },
       {
        "stationID": "C0I390",
        "stationName": "仁愛",
        "stationNameEN": "Ren'ai",
        "stationAltitude": "1184.0",
        "longitude": "121.132206",
        "latitude": "24.022122",
        "countyName": "南投縣",
        "stationAddress": "仁愛鄉仁和路50號(台電公司仁愛服務所)",
        "startDate": "2016-01-01",
        "endDate": null,
        "status": "現存測站",
        "note": null,
        "originalStationID": null,
        "newStationID": null
       },
       {
        "stationID": "C0I410",
        "stationName": "名間",
        "stationNameEN": "Mingjian",
        "stationAltitude": "180.0",
        "longitude": "120.701447",
        "latitude": "23.837053",
        "countyName": "南投縣",
        "stationAddress": "名間鄉董門巷2號(名間鄉立體停車場)",
        "startDate": "2016-01-01",
        "endDate": null,
        "status": "現存測站",
        "note": null,
        "originalStationID": null,
        "newStationID": null
       },
       {
        "stationID": "C0I420",
        "stationName": "國姓",
        "stationNameEN": "Guoxing",
        "stationAltitude": "305.0",
        "longitude": "120.855072",
        "latitude": "24.037803",
        "countyName": "南投縣",
        "stationAddress": "國姓鄉民族街40號(國姓鄉老人文康活動中心)",
        "startDate": "2016-01-01",
        "endDate": null,
        "status": "現存測站",
        "note": null,
        "originalStationID": null,
        "newStationID": null
       },
       {
        "stationID": "C0I460",
        "stationName": "南投",
        "stationNameEN": "Nantou",
        "stationAltitude": "110.0",
        "longitude": "120.687331",
        "latitude": "23.911469",
        "countyName": "南投縣",
        "stationAddress": "南投市龍泉里玉井街5號(南投市公所樓頂)",
        "startDate": "2015-09-21",
        "endDate": null,
        "status": "現存測站",
        "note": null,
        "originalStationID": null,
        "newStationID": null
       },
       {
        "stationID": "C0I480",
        "stationName": "梅峰",
        "stationNameEN": "Meifeng",
        "stationAltitude": "2165.0",
        "longitude": "121.173572",
        "latitude": "24.085272",
        "countyName": "南投縣",
        "stationAddress": "仁愛鄉大同村仁和路215號(梅峰農場)",
        "startDate": "2016-01-01",
        "endDate": null,
        "status": "現存測站",
        "note": null,
        "originalStationID": null,
        "newStationID": null
       },
       {
        "stationID": "C0I490",
        "stationName": "萬大林道",
        "stationNameEN": "Wandalindao",
        "stationAltitude": "1601.0",
        "longitude": "121.091411",
        "latitude": "23.928228",
        "countyName": "南投縣",
        "stationAddress": "仁愛鄉曲冰段(萬大林道約7.2k附近高地)",
        "startDate": "2016-01-01",
        "endDate": null,
        "status": "現存測站",
        "note": null,
        "originalStationID": null,
        "newStationID": null
       },
       {
        "stationID": "C0I520",
        "stationName": "玉山風口",
        "stationNameEN": "Yushanfengkou",
        "stationAltitude": "3860.0",
        "longitude": "120.955994",
        "latitude": "23.470489",
        "countyName": "南投縣",
        "stationAddress": "信義鄉(玉山主峰往北峰叉路空地附近)",
        "startDate": "2016-07-15",
        "endDate": null,
        "status": "現存測站",
        "note": null,
        "originalStationID": null,
        "newStationID": null
       },
       {
        "stationID": "C0I530",
        "stationName": "小奇萊",
        "stationNameEN": "Xiaoqilai",
        "stationAltitude": "3014.0",
        "longitude": "121.295717",
        "latitude": "24.131764",
        "countyName": "南投縣",
        "stationAddress": "仁愛鄉小奇萊步道指標1.5K處附近",
        "startDate": "2017-12-28",
        "endDate": null,
        "status": "現存測站",
        "note": null,
        "originalStationID": null,
        "newStationID": null
       },